{
"type": "FeatureCollection",
"features": [
{ "type": "Feature", "properties": { "Ticket": 123090424, "Date": "2012-11-04", "Time": "12:14:32-05", "Header": "EMERGENCY", "County": "MORRIS", "Rating": 11, "Longitude": -74.36289265122501, "Latitude": 40.9751602414769, "St_number": "8", "St_name": "Lakeside", "City": "Kinnelon", "State": "NJ", "Zip": "07405", "Excav_company": "BORO OF BUTLER WATER& ELECTRIC", "Neighborhood": "TWIN LAKES" }, "geometry": { "type": "Point", "coordinates": [ -74.36289265122501, 40.9751602414769 ] } },
{ "type": "Feature", "properties": { "Ticket": 150260007, "Date": "2015-01-26", "Time": "05:27:58-05", "Header": "EMERGENCY", "County": "UNION", "Rating": 31, "Longitude": -74.182670262572699, "Latitude": 40.661253937250002, "St_number": "401", "St_name": "Schiller", "City": "Elizabeth", "State": "NJ", "Zip": "07206", "Excav_company": "JOSEPH M SANZARI INC.", "Neighborhood": "DOWD" }, "geometry": { "type": "Point", "coordinates": [ -74.182670262572699, 40.661253937250002 ] } },
{ "type": "Feature", "properties": { "Ticket": 141180024, "Date": "2014-04-28", "Time": "06:09:58-04", "Header": "EMERGENCY", "County": "MONMOUTH", "Rating": 11, "Longitude": -74.004466069029206, "Latitude": 40.222277103176602, "St_number": "1104", "St_name": "Heck", "City": "Asbury Park", "State": "NJ", "Zip": "07712", "Excav_company": "HENKELS & MCCOY", "Neighborhood": "4TH" }, "geometry": { "type": "Point", "coordinates": [ -74.004466069029206, 40.222277103176602 ] } },
{ "type": "Feature", "properties": { "Ticket": 150110135, "Date": "2015-01-11", "Time": "15:44:34-05", "Header": "EMERGENCY", "County": "MERCER", "Rating": 106, "Longitude": -74.652583362032999, "Latitude": 40.224828189898602, "St_number": "None", "St_name": "None", "City": "Hamilton Square", "State": "NJ", "Zip": "None", "Excav_company": "PUBLIC SERVICE ELECTRIC & GAS", "Neighborhood": "FENWOOD" }, "geometry": { "type": "Point", "coordinates": [ -74.652583362032999, 40.224828189898602 ] } },
{ "type": "Feature", "properties": { "Ticket": 103371197, "Date": "2010-12-03", "Time": "14:08:55-05", "Header": "EMERGENCY", "County": "MONMOUTH", "Rating": 17, "Longitude": -74.308350350487004, "Latitude": 40.247389923556497, "St_number": "62", "St_name": "Lily", "City": "West Freehold", "State": "NJ", "Zip": "07728", "Excav_company": "NEW JERSEY NATURAL GAS COMPANY", "Neighborhood": "TULIP" }, "geometry": { "type": "Point", "coordinates": [ -74.308350350487004, 40.247389923556497 ] } },
{ "type": "Feature", "properties": { "Ticket": 143041107, "Date": "2014-10-31", "Time": "12:38:07-04", "Header": "EMERGENCY", "County": "BERGEN", "Rating": 41, "Longitude": -74.042915094467901, "Latitude": 40.831442700513499, "St_number": "16", "St_name": "Empire", "City": "Moonachie", "State": "NJ", "Zip": "07074", "Excav_company": "KEMSCO CONSTRUCTION", "Neighborhood": "MOONACHIE" }, "geometry": { "type": "Point", "coordinates": [ -74.042915094467901, 40.831442700513499 ] } },
{ "type": "Feature", "properties": { "Ticket": 121630391, "Date": "2012-06-11", "Time": "08:53:11-04", "Header": "EMERGENCY", "County": "MIDDLESEX", "Rating": 11, "Longitude": -74.231325756929209, "Latitude": 40.582223052824901, "St_number": "18", "St_name": "Barlik", "City": "Carteret", "State": "NJ", "Zip": "07008", "Excav_company": "ROTO ROOTER", "Neighborhood": "ELMWOOD" }, "geometry": { "type": "Point", "coordinates": [ -74.231325756929209, 40.582223052824901 ] } },
{ "type": "Feature", "properties": { "Ticket": 111510304, "Date": "2011-05-31", "Time": "08:44:51-04", "Header": "EMERGENCY", "County": "MERCER", "Rating": 33, "Longitude": -74.7253954341884, "Latitude": 40.308030820199598, "St_number": "None", "St_name": "Woodbury", "City": "Lawrenceville", "State": "NJ", "Zip": "08648", "Excav_company": "SEASCAPE COMMUNICATIONS GROUP", "Neighborhood": "LAURELWOOD" }, "geometry": { "type": "Point", "coordinates": [ -74.7253954341884, 40.308030820199598 ] } },
{ "type": "Feature", "properties": { "Ticket": 100640264, "Date": "2010-03-05", "Time": "09:00:43-05", "Header": "EMERGENCY", "County": "BERGEN", "Rating": 11, "Longitude": -73.964876149770305, "Latitude": 40.896398080946895, "St_number": "200", "St_name": "Chestnut", "City": "Englewood", "State": "NJ", "Zip": "07631", "Excav_company": "MILLER PIPELINE", "Neighborhood": "LYDECKER" }, "geometry": { "type": "Point", "coordinates": [ -73.964876149770305, 40.896398080946895 ] } },
{ "type": "Feature", "properties": { "Ticket": 140620788, "Date": "2014-03-03", "Time": "14:03:23-05", "Header": "EMERGENCY", "County": "MORRIS", "Rating": 44, "Longitude": -74.988564254032099, "Latitude": 39.856926285384901, "St_number": "None", "St_name": "Ford", "City": "Echelon", "State": "NJ", "Zip": "08043", "Excav_company": "DENVILLE TWP WATER & SEWER", "Neighborhood": "BEAVER BROOK" }, "geometry": { "type": "Point", "coordinates": [ -74.988564254032099, 39.856926285384901 ] } },
{ "type": "Feature", "properties": { "Ticket": 132672243, "Date": "2013-09-24", "Time": "14:55:33-04", "Header": "EMERGENCY", "County": "MONMOUTH", "Rating": 33, "Longitude": -74.063776684452293, "Latitude": 40.173911935315999, "St_number": "None", "St_name": "New Bedford", "City": "Allenwood", "State": "NJ", "Zip": "07719", "Excav_company": "NEW JERSEY NATURAL GAS", "Neighborhood": "SURREY" }, "geometry": { "type": "Point", "coordinates": [ -74.063776684452293, 40.173911935315999 ] } },
{ "type": "Feature", "properties": { "Ticket": 110490092, "Date": "2011-02-18", "Time": "07:46:42-05", "Header": "EMERGENCY", "County": "BERGEN", "Rating": 11, "Longitude": -74.019961571881097, "Latitude": 40.975407127067498, "St_number": "155", "St_name": "Clinton", "City": "Emerson", "State": "NJ", "Zip": "07630", "Excav_company": "PSE&G", "Neighborhood": "MAIN" }, "geometry": { "type": "Point", "coordinates": [ -74.019961571881097, 40.975407127067498 ] } },
{ "type": "Feature", "properties": { "Ticket": 123180955, "Date": "2012-11-13", "Time": "11:50:04-05", "Header": "EMERGENCY", "County": "OCEAN", "Rating": 38, "Longitude": -74.88899396545591, "Latitude": 39.8144709985174, "St_number": "None", "St_name": "Long", "City": "Harvey Cedars", "State": "NJ", "Zip": "08053", "Excav_company": "GRAY SUPPLY", "Neighborhood": "86TH" }, "geometry": { "type": "Point", "coordinates": [ -74.88899396545591, 39.8144709985174 ] } },
{ "type": "Feature", "properties": { "Ticket": 110040059, "Date": "2011-01-04", "Time": "07:21:20-05", "Header": "EMERGENCY", "County": "ESSEX", "Rating": 11, "Longitude": -74.220398170037399, "Latitude": 40.7063143626049, "St_number": "533", "St_name": "Clinton", "City": "Newark", "State": "NJ", "Zip": "07112", "Excav_company": "CITY OF NEWARK WATER DEPT", "Neighborhood": "GRUMMAN" }, "geometry": { "type": "Point", "coordinates": [ -74.220398170037399, 40.7063143626049 ] } },
{ "type": "Feature", "properties": { "Ticket": 142270100, "Date": "2014-08-15", "Time": "07:43:30-04", "Header": "EMERGENCY", "County": "HUDSON", "Rating": 11, "Longitude": -74.0377067061155, "Latitude": 40.716782298605999, "St_number": "75", "St_name": "Montgomery", "City": "Jersey City", "State": "NJ", "Zip": "07302", "Excav_company": "WILLIAM J GUARINI PLUMBING & H", "Neighborhood": "WASHINGTON" }, "geometry": { "type": "Point", "coordinates": [ -74.0377067061155, 40.716782298605999 ] } },
{ "type": "Feature", "properties": { "Ticket": 133530769, "Date": "2013-12-19", "Time": "12:56:37-05", "Header": "EMERGENCY", "County": "CAMDEN", "Rating": 23, "Longitude": -75.114913903115593, "Latitude": 39.899317256220101, "St_number": "501", "St_name": "Johnson", "City": "Gloucester City", "State": "NJ", "Zip": "08030", "Excav_company": "PSE&G", "Neighborhood": "MERCER" }, "geometry": { "type": "Point", "coordinates": [ -75.114913903115593, 39.899317256220101 ] } },
{ "type": "Feature", "properties": { "Ticket": 140050027, "Date": "2014-01-05", "Time": "09:57:19-05", "Header": "EMERGENCY", "County": "ESSEX", "Rating": 15, "Longitude": -74.301553517564798, "Latitude": 40.770826552741298, "St_number": "300", "St_name": "Northfield", "City": "Roseland", "State": "NJ", "Zip": "07039", "Excav_company": "TEMPLE BANI ABRAHAM", "Neighborhood": "CEDAR" }, "geometry": { "type": "Point", "coordinates": [ -74.301553517564798, 40.770826552741298 ] } },
{ "type": "Feature", "properties": { "Ticket": 120891429, "Date": "2012-03-29", "Time": "13:58:31-04", "Header": "EMERGENCY", "County": "UNION", "Rating": 16, "Longitude": -74.206485811314906, "Latitude": 40.684420228373796, "St_number": "940", "St_name": "Newark", "City": "Elizabeth", "State": "NJ", "Zip": "07208", "Excav_company": "NEW JERSEY AMERICAN WATER", "Neighborhood": "ALINA" }, "geometry": { "type": "Point", "coordinates": [ -74.206485811314906, 40.684420228373796 ] } },
{ "type": "Feature", "properties": { "Ticket": 113120882, "Date": "2011-11-08", "Time": "11:29:45-05", "Header": "EMERGENCY", "County": "MERCER", "Rating": 105, "Longitude": -74.669324938448497, "Latitude": 40.356234788812998, "St_number": "None", "St_name": "None", "City": "Princeton", "State": "NJ", "Zip": "None", "Excav_company": "VERIZON", "Neighborhood": "CAMPBELTON" }, "geometry": { "type": "Point", "coordinates": [ -74.669324938448497, 40.356234788812998 ] } },
{ "type": "Feature", "properties": { "Ticket": 140500586, "Date": "2014-02-19", "Time": "10:37:36-05", "Header": "EMERGENCY", "County": "OCEAN", "Rating": 41, "Longitude": -74.580322994777902, "Latitude": 40.890661032245298, "St_number": "None", "St_name": "Bermingham", "City": "Wharton", "State": "NJ", "Zip": "07885", "Excav_company": "CELLA SEPTIC INSPECTION", "Neighborhood": "LARCHMONT" }, "geometry": { "type": "Point", "coordinates": [ -74.580322994777902, 40.890661032245298 ] } },
{ "type": "Feature", "properties": { "Ticket": 140170948, "Date": "2014-01-17", "Time": "13:28:42-05", "Header": "EMERGENCY", "County": "HUDSON", "Rating": 38, "Longitude": -74.094930131594296, "Latitude": 40.709451192158397, "St_number": "152", "St_name": "Side", "City": "Jersey City", "State": "NJ", "Zip": "07305", "Excav_company": "J FLETCHER CREAMER & SON", "Neighborhood": "MONTGOMERY" }, "geometry": { "type": "Point", "coordinates": [ -74.094930131594296, 40.709451192158397 ] } },
{ "type": "Feature", "properties": { "Ticket": 101890435, "Date": "2010-07-08", "Time": "09:37:33-04", "Header": "EMERGENCY", "County": "WARREN", "Rating": 78, "Longitude": -75.174001941782706, "Latitude": 40.697880879307903, "St_number": "None", "St_name": "22", "City": "Alpha", "State": "NJ", "Zip": "08865", "Excav_company": "HENKELS & MCCOY", "Neighborhood": "RED SCHOOL" }, "geometry": { "type": "Point", "coordinates": [ -75.174001941782706, 40.697880879307903 ] } },
{ "type": "Feature", "properties": { "Ticket": 132341206, "Date": "2013-08-22", "Time": "13:07:33-04", "Header": "EMERGENCY", "County": "CUMBERLAND", "Rating": 25, "Longitude": -75.2036286768504, "Latitude": 39.503403358062897, "St_number": "100", "St_name": "Burlington", "City": "Seabrook Farms", "State": "NJ", "Zip": "08302", "Excav_company": "SOUTH JERSEY GAS", "Neighborhood": "GARDNER" }, "geometry": { "type": "Point", "coordinates": [ -75.2036286768504, 39.503403358062897 ] } },
{ "type": "Feature", "properties": { "Ticket": 141350676, "Date": "2014-05-15", "Time": "10:15:20-04", "Header": "EMERGENCY", "County": "ATLANTIC", "Rating": 16, "Longitude": -74.4140051756997, "Latitude": 39.367372095283201, "St_number": "100", "St_name": "Vermont", "City": "Atlantic City", "State": "NJ", "Zip": "08401", "Excav_company": "ATLANTIC CITY ELECTRIC", "Neighborhood": "GRAMMERCY" }, "geometry": { "type": "Point", "coordinates": [ -74.4140051756997, 39.367372095283201 ] } },
{ "type": "Feature", "properties": { "Ticket": 110120252, "Date": "2011-01-12", "Time": "11:23:55-05", "Header": "EMERGENCY", "County": "MIDDLESEX", "Rating": 31, "Longitude": -74.242548078196293, "Latitude": 40.401961180295899, "St_number": "7", "St_name": "Euclid", "City": "Brownville", "State": "NJ", "Zip": "07747", "Excav_company": "PSE&G", "Neighborhood": "PROSPECT" }, "geometry": { "type": "Point", "coordinates": [ -74.242548078196293, 40.401961180295899 ] } },
{ "type": "Feature", "properties": { "Ticket": 120321283, "Date": "2012-02-01", "Time": "14:46:17-05", "Header": "EMERGENCY", "County": "MORRIS", "Rating": 26, "Longitude": -74.2754160394949, "Latitude": 40.247719677955402, "St_number": "6", "St_name": "Helen", "City": "East Freehold", "State": "NJ", "Zip": "07728", "Excav_company": "PSE&G", "Neighborhood": "HANOVER" }, "geometry": { "type": "Point", "coordinates": [ -74.2754160394949, 40.247719677955402 ] } },
{ "type": "Feature", "properties": { "Ticket": 142752304, "Date": "2014-10-02", "Time": "19:23:46-04", "Header": "EMERGENCY", "County": "PASSAIC", "Rating": 49, "Longitude": -74.754399954144205, "Latitude": 40.241868640406501, "St_number": "None", "St_name": "Olden", "City": "Trenton", "State": "NJ", "Zip": "08638", "Excav_company": "WAYNE TWP WATER DEPARTMENT", "Neighborhood": "REINHARDT" }, "geometry": { "type": "Point", "coordinates": [ -74.754399954144205, 40.241868640406501 ] } },
{ "type": "Feature", "properties": { "Ticket": 120820067, "Date": "2012-03-22", "Time": "07:05:44-04", "Header": "EMERGENCY", "County": "PASSAIC", "Rating": 23, "Longitude": -74.129753362752197, "Latitude": 40.866911584532502, "St_number": "112", "St_name": "Central", "City": "Passaic", "State": "NJ", "Zip": "07055", "Excav_company": "PASSAIC VALLEY WATER COMMISSIO", "Neighborhood": "MADISON" }, "geometry": { "type": "Point", "coordinates": [ -74.129753362752197, 40.866911584532502 ] } },
{ "type": "Feature", "properties": { "Ticket": 101410107, "Date": "2010-05-21", "Time": "07:37:04-04", "Header": "EMERGENCY", "County": "MORRIS", "Rating": 25, "Longitude": -74.039521378876586, "Latitude": 40.889458732213001, "St_number": "22", "St_name": "Passaic", "City": "Hackensack", "State": "NJ", "Zip": "07601", "Excav_company": "CHATHAM BORO WTR DEPT", "Neighborhood": "MAIN" }, "geometry": { "type": "Point", "coordinates": [ -74.039521378876586, 40.889458732213001 ] } },
{ "type": "Feature", "properties": { "Ticket": 132311738, "Date": "2013-08-19", "Time": "14:21:06-04", "Header": "EMERGENCY", "County": "GLOUCESTER", "Rating": 23, "Longitude": -74.155210950260198, "Latitude": 40.7538323132461, "St_number": "123", "St_name": "Woodland", "City": "Kearny", "State": "NJ", "Zip": "07032", "Excav_company": "SOUTH JERSEY GAS", "Neighborhood": "HORSESHOE" }, "geometry": { "type": "Point", "coordinates": [ -74.155210950260198, 40.7538323132461 ] } },
{ "type": "Feature", "properties": { "Ticket": 120180928, "Date": "2012-01-18", "Time": "12:09:39-05", "Header": "EMERGENCY", "County": "ATLANTIC", "Rating": 21, "Longitude": -74.503838093420796, "Latitude": 39.341212552948797, "St_number": "7607", "St_name": "Burk", "City": "Margate City", "State": "NJ", "Zip": "08402", "Excav_company": "ATLANTIC CITY ELECTRIC COMPANY", "Neighborhood": "CLERMONT" }, "geometry": { "type": "Point", "coordinates": [ -74.503838093420796, 39.341212552948797 ] } },
{ "type": "Feature", "properties": { "Ticket": 122571265, "Date": "2012-09-13", "Time": "12:34:26-04", "Header": "EMERGENCY", "County": "ESSEX", "Rating": 31, "Longitude": -74.238222882902093, "Latitude": 40.735746604744705, "St_number": "1", "St_name": "Mount Vernon", "City": "Newark", "State": "NJ", "Zip": "07106", "Excav_company": "PUBLIC SERVICE ELECTRIC & GAS", "Neighborhood": "MANOR" }, "geometry": { "type": "Point", "coordinates": [ -74.238222882902093, 40.735746604744705 ] } },
{ "type": "Feature", "properties": { "Ticket": 112210183, "Date": "2011-08-09", "Time": "08:07:12-04", "Header": "EMERGENCY", "County": "BURLINGTON", "Rating": 29, "Longitude": -75.016249960492701, "Latitude": 39.479545536339003, "St_number": "None", "St_name": "Cherry", "City": "Vineland", "State": "NJ", "Zip": "08360", "Excav_company": "ROOT 24 HRS INC", "Neighborhood": "THOMAS" }, "geometry": { "type": "Point", "coordinates": [ -75.016249960492701, 39.479545536339003 ] } },
{ "type": "Feature", "properties": { "Ticket": 140160010, "Date": "2014-01-16", "Time": "04:48:58-05", "Header": "EMERGENCY", "County": "BURLINGTON", "Rating": 25, "Longitude": -74.4753783352065, "Latitude": 40.561277912157799, "St_number": "22", "St_name": "Burgess", "City": "Dunellen", "State": "NJ", "Zip": "08854", "Excav_company": "WILLINGBORO MUA", "Neighborhood": "BARRINGTON" }, "geometry": { "type": "Point", "coordinates": [ -74.4753783352065, 40.561277912157799 ] } },
{ "type": "Feature", "properties": { "Ticket": 113140663, "Date": "2011-11-10", "Time": "10:51:43-05", "Header": "EMERGENCY", "County": "MONMOUTH", "Rating": 39, "Longitude": -74.095777364576406, "Latitude": 40.024541749207202, "St_number": "1", "St_name": "Cabana", "City": "Leisure Village East", "State": "NJ", "Zip": "08723", "Excav_company": "NEW JERSEY NATURAL GAS COMPANY", "Neighborhood": "CRESCI" }, "geometry": { "type": "Point", "coordinates": [ -74.095777364576406, 40.024541749207202 ] } },
{ "type": "Feature", "properties": { "Ticket": 101101483, "Date": "2010-04-20", "Time": "12:19:16-04", "Header": "EMERGENCY", "County": "BERGEN", "Rating": 16, "Longitude": -73.994230575007407, "Latitude": 40.816992053045297, "St_number": "352", "St_name": "Anderson", "City": "Fairview", "State": "NJ", "Zip": "07022", "Excav_company": "UNITED WATER", "Neighborhood": "JERSEY" }, "geometry": { "type": "Point", "coordinates": [ -73.994230575007407, 40.816992053045297 ] } },
{ "type": "Feature", "properties": { "Ticket": 111992000, "Date": "2011-07-18", "Time": "15:46:34-04", "Header": "EMERGENCY", "County": "MONMOUTH", "Rating": 53, "Longitude": -74.0515762183297, "Latitude": 40.298569247673299, "St_number": "99", "St_name": "Pearce", "City": "Eatontown", "State": "NJ", "Zip": "07724", "Excav_company": "DANELLA LINE SERVICE", "Neighborhood": "JEFFERSON" }, "geometry": { "type": "Point", "coordinates": [ -74.0515762183297, 40.298569247673299 ] } },
{ "type": "Feature", "properties": { "Ticket": 131820940, "Date": "2013-07-01", "Time": "11:16:29-04", "Header": "EMERGENCY", "County": "MONMOUTH", "Rating": 39, "Longitude": -74.755823986723797, "Latitude": 39.452427496555998, "St_number": "None", "St_name": "Monmouth", "City": "Estell Manor", "State": "NJ", "Zip": "08330", "Excav_company": "MOUNT CONSTRUCTION", "Neighborhood": "NAVESINK" }, "geometry": { "type": "Point", "coordinates": [ -74.755823986723797, 39.452427496555998 ] } },
{ "type": "Feature", "properties": { "Ticket": 102251583, "Date": "2010-08-13", "Time": "16:47:36-04", "Header": "EMERGENCY", "County": "BERGEN", "Rating": 46, "Longitude": -74.071172272215989, "Latitude": 40.926442000938003, "St_number": "65", "St_name": "17", "City": "Paramus", "State": "NJ", "Zip": "07652", "Excav_company": "UNITED WATER", "Neighborhood": "CENTURY" }, "geometry": { "type": "Point", "coordinates": [ -74.071172272215989, 40.926442000938003 ] } },
{ "type": "Feature", "properties": { "Ticket": 142652964, "Date": "2014-09-22", "Time": "19:05:57-04", "Header": "EMERGENCY", "County": "OCEAN", "Rating": 26, "Longitude": -74.040488900080703, "Latitude": 40.906416663970703, "St_number": "35", "St_name": "Oak", "City": "Hackensack", "State": "NJ", "Zip": "07601", "Excav_company": "JERSEY CENTRAL POWER & LIGHT", "Neighborhood": "CEDAR GROVE" }, "geometry": { "type": "Point", "coordinates": [ -74.040488900080703, 40.906416663970703 ] } },
{ "type": "Feature", "properties": { "Ticket": 122000394, "Date": "2012-07-18", "Time": "08:54:02-04", "Header": "EMERGENCY", "County": "CUMBERLAND", "Rating": 15, "Longitude": -75.207258789070295, "Latitude": 39.4055334081187, "St_number": "307", "St_name": "Burlington", "City": "Alloway", "State": "NJ", "Zip": "08302", "Excav_company": "D'AGOSTINO'S WATER SOLUTIONS", "Neighborhood": "FAIRTON GOULDTOWN" }, "geometry": { "type": "Point", "coordinates": [ -75.207258789070295, 39.4055334081187 ] } },
{ "type": "Feature", "properties": { "Ticket": 143340014, "Date": "2014-11-30", "Time": "07:39:09-05", "Header": "EMERGENCY", "County": "CAMDEN", "Rating": 21, "Longitude": -75.066690718541096, "Latitude": 39.910232966663607, "St_number": "401", "St_name": "Lees", "City": "Collingswood", "State": "NJ", "Zip": "08108", "Excav_company": "ROTO ROOTER", "Neighborhood": "ATLANTIC" }, "geometry": { "type": "Point", "coordinates": [ -75.066690718541096, 39.910232966663607 ] } },
{ "type": "Feature", "properties": { "Ticket": 133580075, "Date": "2013-12-24", "Time": "07:44:39-05", "Header": "EMERGENCY", "County": "HUDSON", "Rating": 16, "Longitude": -74.075454604303403, "Latitude": 40.723759602344707, "St_number": "269", "St_name": "Jewett", "City": "Jersey City", "State": "NJ", "Zip": "07304", "Excav_company": "WILLIAM J GUARINI PLUMBING & H", "Neighborhood": "SIDE" }, "geometry": { "type": "Point", "coordinates": [ -74.075454604303403, 40.723759602344707 ] } },
{ "type": "Feature", "properties": { "Ticket": 133382114, "Date": "2013-12-04", "Time": "21:45:44-05", "Header": "EMERGENCY", "County": "MERCER", "Rating": 12, "Longitude": -74.754272546447808, "Latitude": 40.242020083214705, "St_number": "None", "St_name": "Olden", "City": "Trenton", "State": "NJ", "Zip": "08638", "Excav_company": "TRENTON WATER WORKS", "Neighborhood": "NEW YORK" }, "geometry": { "type": "Point", "coordinates": [ -74.754272546447808, 40.242020083214705 ] } },
{ "type": "Feature", "properties": { "Ticket": 141710888, "Date": "2014-06-20", "Time": "11:05:18-04", "Header": "EMERGENCY", "County": "UNION", "Rating": 11, "Longitude": -74.194990155150705, "Latitude": 40.654696431554896, "St_number": "463", "St_name": "Fulton", "City": "Elizabeth", "State": "NJ", "Zip": "07206", "Excav_company": "ELIZABETHTOWN GAS", "Neighborhood": "5TH" }, "geometry": { "type": "Point", "coordinates": [ -74.194990155150705, 40.654696431554896 ] } },
{ "type": "Feature", "properties": { "Ticket": 142050693, "Date": "2014-07-24", "Time": "10:24:28-04", "Header": "EMERGENCY", "County": "CAMDEN", "Rating": 31, "Longitude": -75.121541702885793, "Latitude": 39.934171402845202, "St_number": "400", "St_name": "Cherry", "City": "Camden", "State": "NJ", "Zip": "08103", "Excav_company": "UNITED WATER", "Neighborhood": "CHERRIER" }, "geometry": { "type": "Point", "coordinates": [ -75.121541702885793, 39.934171402845202 ] } },
{ "type": "Feature", "properties": { "Ticket": 143140112, "Date": "2014-11-10", "Time": "07:26:24-05", "Header": "EMERGENCY", "County": "BERGEN", "Rating": 11, "Longitude": -74.104272340575292, "Latitude": 40.897897797286603, "St_number": "593", "St_name": "Market", "City": "Elmwood Park", "State": "NJ", "Zip": "07407", "Excav_company": "THE BORO OF ELMWOOD PARK", "Neighborhood": "MIDLAND" }, "geometry": { "type": "Point", "coordinates": [ -74.104272340575292, 40.897897797286603 ] } },
{ "type": "Feature", "properties": { "Ticket": 110941271, "Date": "2011-04-04", "Time": "13:07:51-04", "Header": "EMERGENCY", "County": "ESSEX", "Rating": 26, "Longitude": -74.412278063176601, "Latitude": 40.525290896869706, "St_number": "14", "St_name": "Brunswick", "City": "Highland Park", "State": "NJ", "Zip": "08817", "Excav_company": "PSE&G", "Neighborhood": "POMPTON" }, "geometry": { "type": "Point", "coordinates": [ -74.412278063176601, 40.525290896869706 ] } },
{ "type": "Feature", "properties": { "Ticket": 132831519, "Date": "2013-10-10", "Time": "13:53:19-04", "Header": "EMERGENCY", "County": "CAMDEN", "Rating": 31, "Longitude": -75.093497810934409, "Latitude": 39.943615549255796, "St_number": "2076", "St_name": "Berwick", "City": "Camden", "State": "NJ", "Zip": "08105", "Excav_company": "UNITED WATER LLC", "Neighborhood": "BOYD" }, "geometry": { "type": "Point", "coordinates": [ -75.093497810934409, 39.943615549255796 ] } },
{ "type": "Feature", "properties": { "Ticket": 102920068, "Date": "2010-10-19", "Time": "07:12:05-04", "Header": "EMERGENCY", "County": "BERGEN", "Rating": 11, "Longitude": -73.963996454682089, "Latitude": 41.012290408097897, "St_number": "532", "St_name": "Roosevelt", "City": "Northvale", "State": "NJ", "Zip": "07647", "Excav_company": "BOGUSH PLUMBING", "Neighborhood": "WHITE" }, "geometry": { "type": "Point", "coordinates": [ -73.963996454682089, 41.012290408097897 ] } },
{ "type": "Feature", "properties": { "Ticket": 150200406, "Date": "2015-01-20", "Time": "09:43:38-05", "Header": "EMERGENCY", "County": "SALEM", "Rating": 16, "Longitude": -75.49445486249229, "Latitude": 39.648011980423099, "St_number": "190", "St_name": "Erie", "City": "Pennsville", "State": "NJ", "Zip": "08070", "Excav_company": "SOUTH JERSEY GAS COMPANY", "Neighborhood": "HOOK" }, "geometry": { "type": "Point", "coordinates": [ -75.49445486249229, 39.648011980423099 ] } },
{ "type": "Feature", "properties": { "Ticket": 131710146, "Date": "2013-06-20", "Time": "07:50:21-04", "Header": "EMERGENCY", "County": "MIDDLESEX", "Rating": 21, "Longitude": -74.325277338222804, "Latitude": 40.773099400548702, "St_number": "21", "St_name": "Harrison", "City": "Roseland", "State": "NJ", "Zip": "07039", "Excav_company": "MIDDLESEX WATER CO", "Neighborhood": "BERNARD" }, "geometry": { "type": "Point", "coordinates": [ -74.325277338222804, 40.773099400548702 ] } },
{ "type": "Feature", "properties": { "Ticket": 101600141, "Date": "2010-06-09", "Time": "07:42:17-04", "Header": "EMERGENCY", "County": "BURLINGTON", "Rating": 37, "Longitude": -74.700014696854709, "Latitude": 40.150281325895207, "St_number": "177", "St_name": "130", "City": "Bordentown", "State": "NJ", "Zip": "08505", "Excav_company": "PSE&G", "Neighborhood": "WARD" }, "geometry": { "type": "Point", "coordinates": [ -74.700014696854709, 40.150281325895207 ] } },
{ "type": "Feature", "properties": { "Ticket": 130280125, "Date": "2013-01-28", "Time": "07:03:26-05", "Header": "EMERGENCY", "County": "UNION", "Rating": 26, "Longitude": -74.300553739232299, "Latitude": 40.670465399952199, "St_number": "None", "St_name": "Arbor", "City": "Linden", "State": "NJ", "Zip": "07016", "Excav_company": "CRJ CONTRACTING CORPORATION", "Neighborhood": "OAKLAND" }, "geometry": { "type": "Point", "coordinates": [ -74.300553739232299, 40.670465399952199 ] } },
{ "type": "Feature", "properties": { "Ticket": 101810044, "Date": "2010-06-30", "Time": "06:56:29-04", "Header": "EMERGENCY", "County": "BERGEN", "Rating": 18, "Longitude": -74.0144236766765, "Latitude": 40.8816594669875, "St_number": "146", "St_name": "Johnson", "City": "Bogota", "State": "NJ", "Zip": "07666", "Excav_company": "UNITED WATER", "Neighborhood": "QUEEN ANNE" }, "geometry": { "type": "Point", "coordinates": [ -74.0144236766765, 40.8816594669875 ] } },
{ "type": "Feature", "properties": { "Ticket": 131130448, "Date": "2013-04-23", "Time": "09:06:26-04", "Header": "EMERGENCY", "County": "MONMOUTH", "Rating": 56, "Longitude": -74.344702413662603, "Latitude": 39.585383989002104, "St_number": "25", "St_name": "Boom", "City": "Tuckerton", "State": "NJ", "Zip": "08087", "Excav_company": "C & R UTILITIES INC", "Neighborhood": "CEDAR VILLAGE" }, "geometry": { "type": "Point", "coordinates": [ -74.344702413662603, 39.585383989002104 ] } },
{ "type": "Feature", "properties": { "Ticket": 123110301, "Date": "2012-11-06", "Time": "08:54:56-05", "Header": "EMERGENCY", "County": "CAMDEN", "Rating": 18, "Longitude": -75.059442823530503, "Latitude": 39.890884644100396, "St_number": "144", "St_name": "Carlisle", "City": "Audubon", "State": "NJ", "Zip": "08106", "Excav_company": "ROTO ROOTER", "Neighborhood": "AMHURST" }, "geometry": { "type": "Point", "coordinates": [ -75.059442823530503, 39.890884644100396 ] } },
{ "type": "Feature", "properties": { "Ticket": 113530100, "Date": "2011-12-19", "Time": "07:29:47-05", "Header": "EMERGENCY", "County": "GLOUCESTER", "Rating": 40, "Longitude": -74.077365040292406, "Latitude": 40.987595607371397, "St_number": "None", "St_name": "Salem", "City": "Westwood", "State": "NJ", "Zip": "07676", "Excav_company": "PUBLIC SERVICE ELECTRIC & GAS", "Neighborhood": "PRINCETON" }, "geometry": { "type": "Point", "coordinates": [ -74.077365040292406, 40.987595607371397 ] } },
{ "type": "Feature", "properties": { "Ticket": 142730425, "Date": "2014-09-30", "Time": "09:11:05-04", "Header": "EMERGENCY", "County": "BERGEN", "Rating": 18, "Longitude": -74.017350879379407, "Latitude": 40.882690729229999, "St_number": "250", "St_name": "Johnson", "City": "Bogota", "State": "NJ", "Zip": "07666", "Excav_company": "D LANZO PLUMBING & SEWER", "Neighborhood": "QUEEN ANNE" }, "geometry": { "type": "Point", "coordinates": [ -74.017350879379407, 40.882690729229999 ] } },
{ "type": "Feature", "properties": { "Ticket": 122630221, "Date": "2012-09-19", "Time": "08:04:01-04", "Header": "EMERGENCY", "County": "GLOUCESTER", "Rating": 25, "Longitude": -74.993769243349703, "Latitude": 39.690532058440397, "St_number": "110", "St_name": "Black Horse", "City": "Williamstown", "State": "NJ", "Zip": "08094", "Excav_company": "A-ACTION PLUMBING INC.", "Neighborhood": "PINE" }, "geometry": { "type": "Point", "coordinates": [ -74.993769243349703, 39.690532058440397 ] } },
{ "type": "Feature", "properties": { "Ticket": 120050201, "Date": "2012-01-05", "Time": "08:13:11-05", "Header": "EMERGENCY", "County": "UNION", "Rating": 13, "Longitude": -74.437776608219096, "Latitude": 40.598678947389104, "St_number": "1221", "St_name": "6th", "City": "Plainfield", "State": "NJ", "Zip": "07063", "Excav_company": "NEW JERSEY AMERICAN WATER COMP", "Neighborhood": "CLINTON" }, "geometry": { "type": "Point", "coordinates": [ -74.437776608219096, 40.598678947389104 ] } },
{ "type": "Feature", "properties": { "Ticket": 130321198, "Date": "2013-02-01", "Time": "14:13:43-05", "Header": "EMERGENCY", "County": "OCEAN", "Rating": 1, "Longitude": -74.219222541730005, "Latitude": 39.998902114030997, "St_number": "9", "St_name": "Golden Glow Circus", "City": "Toms River", "State": "NJ", "Zip": "08755", "Excav_company": "BURLEW MECHANICAL", "Neighborhood": "FOX GLOVE" }, "geometry": { "type": "Point", "coordinates": [ -74.219222541730005, 39.998902114030997 ] } },
{ "type": "Feature", "properties": { "Ticket": 133301191, "Date": "2013-11-26", "Time": "13:11:18-05", "Header": "EMERGENCY", "County": "SALEM", "Rating": 11, "Longitude": -75.329873773664602, "Latitude": 39.649716294806602, "St_number": "105", "St_name": "Green", "City": "Woodstown", "State": "NJ", "Zip": "08098", "Excav_company": "SOUTH JERSEY GAS", "Neighborhood": "SPRING GARDEN" }, "geometry": { "type": "Point", "coordinates": [ -75.329873773664602, 39.649716294806602 ] } },
{ "type": "Feature", "properties": { "Ticket": 141152119, "Date": "2014-04-25", "Time": "16:34:51-04", "Header": "EMERGENCY", "County": "BERGEN", "Rating": 16, "Longitude": -74.033246325983797, "Latitude": 40.986057200441302, "St_number": "66", "St_name": "Goodwin", "City": "Westwood", "State": "NJ", "Zip": "07675", "Excav_company": "UNITED WATER", "Neighborhood": "GLADYS" }, "geometry": { "type": "Point", "coordinates": [ -74.033246325983797, 40.986057200441302 ] } },
{ "type": "Feature", "properties": { "Ticket": 103410059, "Date": "2010-12-07", "Time": "07:07:03-05", "Header": "EMERGENCY", "County": "MIDDLESEX", "Rating": 38, "Longitude": -74.368570901271099, "Latitude": 40.346555956986798, "St_number": "None", "St_name": "Arizona", "City": "Brownville", "State": "NJ", "Zip": "08857", "Excav_company": "GRAY SUPPLY CORPORATION", "Neighborhood": "TELLURIDE" }, "geometry": { "type": "Point", "coordinates": [ -74.368570901271099, 40.346555956986798 ] } },
{ "type": "Feature", "properties": { "Ticket": 140080169, "Date": "2014-01-08", "Time": "07:41:57-05", "Header": "EMERGENCY", "County": "ESSEX", "Rating": 51, "Longitude": -74.662553523359406, "Latitude": 40.409144571649499, "St_number": "79", "St_name": "Bristol", "City": "Blawenburg", "State": "NJ", "Zip": "08558", "Excav_company": "TWP OF BLOOMFIELD", "Neighborhood": "KOEHLER" }, "geometry": { "type": "Point", "coordinates": [ -74.662553523359406, 40.409144571649499 ] } },
{ "type": "Feature", "properties": { "Ticket": 100641618, "Date": "2010-03-05", "Time": "15:59:35-05", "Header": "EMERGENCY", "County": "CAMDEN", "Rating": 16, "Longitude": -75.100849841859699, "Latitude": 39.934587738109798, "St_number": "1220", "St_name": "Empire", "City": "Camden", "State": "NJ", "Zip": "08103", "Excav_company": "UNITED WATER", "Neighborhood": "WILDWOOD" }, "geometry": { "type": "Point", "coordinates": [ -75.100849841859699, 39.934587738109798 ] } },
{ "type": "Feature", "properties": { "Ticket": 101441170, "Date": "2010-05-24", "Time": "12:01:21-04", "Header": "EMERGENCY", "County": "MIDDLESEX", "Rating": 22, "Longitude": -74.0753787026228, "Latitude": 40.3451449301689, "St_number": "60", "St_name": "Leonard", "City": "Red Bank", "State": "NJ", "Zip": "07701", "Excav_company": "ELIZABETHTOWN GAS", "Neighborhood": "NORCROSS" }, "geometry": { "type": "Point", "coordinates": [ -74.0753787026228, 40.3451449301689 ] } },
{ "type": "Feature", "properties": { "Ticket": 101880056, "Date": "2010-07-07", "Time": "07:07:01-04", "Header": "EMERGENCY", "County": "BERGEN", "Rating": 16, "Longitude": -73.988076962978596, "Latitude": 40.899117594219902, "St_number": "340", "St_name": "Shepard", "City": "Englewood", "State": "NJ", "Zip": "07631", "Excav_company": "UNITED WATER", "Neighborhood": "OAK" }, "geometry": { "type": "Point", "coordinates": [ -73.988076962978596, 40.899117594219902 ] } },
{ "type": "Feature", "properties": { "Ticket": 140160922, "Date": "2014-01-16", "Time": "12:42:13-05", "Header": "EMERGENCY", "County": "BERGEN", "Rating": 34, "Longitude": -74.096984842449999, "Latitude": 40.838329491625096, "St_number": "507", "St_name": "Hoboken", "City": "Carlstadt", "State": "NJ", "Zip": "07072", "Excav_company": "PSE&G", "Neighborhood": "ENOCH" }, "geometry": { "type": "Point", "coordinates": [ -74.096984842449999, 40.838329491625096 ] } },
{ "type": "Feature", "properties": { "Ticket": 130651088, "Date": "2013-03-06", "Time": "13:17:16-05", "Header": "EMERGENCY", "County": "PASSAIC", "Rating": 11, "Longitude": -74.324894789296209, "Latitude": 41.010621060231706, "St_number": "77", "St_name": "Forest", "City": "Bloomingdale", "State": "NJ", "Zip": "07403", "Excav_company": "LUBIMI INC", "Neighborhood": "KNOLLS" }, "geometry": { "type": "Point", "coordinates": [ -74.324894789296209, 41.010621060231706 ] } },
{ "type": "Feature", "properties": { "Ticket": 132272066, "Date": "2013-08-15", "Time": "16:07:01-04", "Header": "EMERGENCY", "County": "SOMERSET", "Rating": 31, "Longitude": -74.435268083431993, "Latitude": 40.634161099337099, "St_number": "1", "St_name": "Mountain", "City": "Watchung", "State": "NJ", "Zip": "07069", "Excav_company": "CRJ CONTRACTING CORPORATION", "Neighborhood": "WASHINGTON ROCK" }, "geometry": { "type": "Point", "coordinates": [ -74.435268083431993, 40.634161099337099 ] } },
{ "type": "Feature", "properties": { "Ticket": 120030096, "Date": "2012-01-03", "Time": "07:40:12-05", "Header": "EMERGENCY", "County": "ESSEX", "Rating": 88, "Longitude": -74.016945021044208, "Latitude": 40.937969928290698, "St_number": "None", "St_name": "Mc Kinley", "City": "New Milford", "State": "NJ", "Zip": "07646", "Excav_company": "MILLER PIPELINE CORPORATION", "Neighborhood": "SCOTLAND" }, "geometry": { "type": "Point", "coordinates": [ -74.016945021044208, 40.937969928290698 ] } },
{ "type": "Feature", "properties": { "Ticket": 102510615, "Date": "2010-09-08", "Time": "09:53:53-04", "Header": "EMERGENCY", "County": "MERCER", "Rating": 13, "Longitude": -74.746539879521904, "Latitude": 40.291779661884604, "St_number": "2", "St_name": "Feather Bed", "City": "Lawrenceville", "State": "NJ", "Zip": "08648", "Excav_company": "KLINE CONSTRUCTION", "Neighborhood": "WEXFORD" }, "geometry": { "type": "Point", "coordinates": [ -74.746539879521904, 40.291779661884604 ] } },
{ "type": "Feature", "properties": { "Ticket": 130240437, "Date": "2013-01-24", "Time": "09:37:26-05", "Header": "EMERGENCY", "County": "UNION", "Rating": 31, "Longitude": -74.282924136568496, "Latitude": 40.663746724298797, "St_number": "112", "St_name": "Valley", "City": "Roselle Park", "State": "NJ", "Zip": "07204", "Excav_company": "CRJ CONTRACTING CORPORATION", "Neighborhood": "LINCOLN" }, "geometry": { "type": "Point", "coordinates": [ -74.282924136568496, 40.663746724298797 ] } },
{ "type": "Feature", "properties": { "Ticket": 150021079, "Date": "2015-01-02", "Time": "15:28:13-05", "Header": "EMERGENCY", "County": "ESSEX", "Rating": 43, "Longitude": -74.347779328621087, "Latitude": 40.597839861389104, "St_number": "None", "St_name": "Reynold", "City": "Colonia", "State": "NJ", "Zip": "08820", "Excav_company": "PSEG", "Neighborhood": "HICKORY" }, "geometry": { "type": "Point", "coordinates": [ -74.347779328621087, 40.597839861389104 ] } },
{ "type": "Feature", "properties": { "Ticket": 111611036, "Date": "2011-06-10", "Time": "12:30:24-04", "Header": "EMERGENCY", "County": "PASSAIC", "Rating": 16, "Longitude": -74.143049908878197, "Latitude": 40.868480349194002, "St_number": "362", "St_name": "Highland", "City": "Clifton", "State": "NJ", "Zip": "07011", "Excav_company": "PSE&G", "Neighborhood": "3RD" }, "geometry": { "type": "Point", "coordinates": [ -74.143049908878197, 40.868480349194002 ] } },
{ "type": "Feature", "properties": { "Ticket": 133310384, "Date": "2013-11-27", "Time": "09:58:53-05", "Header": "EMERGENCY", "County": "MONMOUTH", "Rating": 58, "Longitude": -74.643166998604002, "Latitude": 39.400898695472897, "St_number": "22", "St_name": "Faith", "City": "Absecon", "State": "NJ", "Zip": "08234", "Excav_company": "HENKELS & MCCOY", "Neighborhood": "FORDHAM" }, "geometry": { "type": "Point", "coordinates": [ -74.643166998604002, 39.400898695472897 ] } },
{ "type": "Feature", "properties": { "Ticket": 130430344, "Date": "2013-02-12", "Time": "08:52:09-05", "Header": "EMERGENCY", "County": "UNION", "Rating": 16, "Longitude": -74.293670656436802, "Latitude": 40.616614902136398, "St_number": "1188", "St_name": "Westfield", "City": "Rahway", "State": "NJ", "Zip": "07065", "Excav_company": "ELIZABETHTOWN GAS", "Neighborhood": "KLINE" }, "geometry": { "type": "Point", "coordinates": [ -74.293670656436802, 40.616614902136398 ] } },
{ "type": "Feature", "properties": { "Ticket": 130170422, "Date": "2013-01-17", "Time": "09:38:43-05", "Header": "EMERGENCY", "County": "OCEAN", "Rating": 23, "Longitude": -74.207130728996589, "Latitude": 39.604810561201795, "St_number": "99", "St_name": "Oceanview", "City": "North Beach Haven", "State": "NJ", "Zip": "08008", "Excav_company": "BRICK TOWNSHIP MUA", "Neighborhood": "STATE RTE 35" }, "geometry": { "type": "Point", "coordinates": [ -74.207130728996589, 39.604810561201795 ] } },
{ "type": "Feature", "properties": { "Ticket": 132980034, "Date": "2013-10-25", "Time": "06:37:10-04", "Header": "EMERGENCY", "County": "MONMOUTH", "Rating": 63, "Longitude": -74.669925082203292, "Latitude": 40.504330416891797, "St_number": "45", "St_name": "Aquarius", "City": "Millstone", "State": "NJ", "Zip": "08844", "Excav_company": "ATLAS SEPTIC", "Neighborhood": "SODEN FARM" }, "geometry": { "type": "Point", "coordinates": [ -74.669925082203292, 40.504330416891797 ] } },
{ "type": "Feature", "properties": { "Ticket": 102661648, "Date": "2010-09-23", "Time": "14:46:26-04", "Header": "EMERGENCY", "County": "BERGEN", "Rating": 13, "Longitude": -74.119433821763195, "Latitude": 41.011013958190901, "St_number": "2", "St_name": "Prospect", "City": "Waldwick", "State": "NJ", "Zip": "07463", "Excav_company": "BORO WALDWICK", "Neighborhood": "HEWSON" }, "geometry": { "type": "Point", "coordinates": [ -74.119433821763195, 41.011013958190901 ] } },
{ "type": "Feature", "properties": { "Ticket": 140170805, "Date": "2014-01-17", "Time": "12:35:19-05", "Header": "EMERGENCY", "County": "MORRIS", "Rating": 71, "Longitude": -74.2897089340305, "Latitude": 40.927337941339204, "St_number": "None", "St_name": "President", "City": "Lincoln Park", "State": "NJ", "Zip": "07035", "Excav_company": "PSE&G", "Neighborhood": "DAUGHERTY" }, "geometry": { "type": "Point", "coordinates": [ -74.2897089340305, 40.927337941339204 ] } },
{ "type": "Feature", "properties": { "Ticket": 142050538, "Date": "2014-07-24", "Time": "09:40:04-04", "Header": "EMERGENCY", "County": "HUNTERDON", "Rating": 104, "Longitude": -74.912463892022089, "Latitude": 40.635921430175294, "St_number": "None", "St_name": "None", "City": "Clinton", "State": "NJ", "Zip": "None", "Excav_company": "ELIZABETHTOWN GAS COMPANY", "Neighborhood": "STATE RTE 31" }, "geometry": { "type": "Point", "coordinates": [ -74.912463892022089, 40.635921430175294 ] } },
{ "type": "Feature", "properties": { "Ticket": 130720413, "Date": "2013-03-13", "Time": "08:56:37-04", "Header": "EMERGENCY", "County": "ESSEX", "Rating": 16, "Longitude": -74.287129882459908, "Latitude": 40.834618806186292, "St_number": "141", "St_name": "Brookside", "City": "Caldwell", "State": "NJ", "Zip": "07006", "Excav_company": "PSE&G", "Neighborhood": "CLEVELAND" }, "geometry": { "type": "Point", "coordinates": [ -74.287129882459908, 40.834618806186292 ] } },
{ "type": "Feature", "properties": { "Ticket": 130990054, "Date": "2013-04-09", "Time": "06:43:38-04", "Header": "EMERGENCY", "County": "WARREN", "Rating": 16, "Longitude": -75.134219186387298, "Latitude": 40.680457022698995, "St_number": "202", "St_name": "Yvonne", "City": "Greenwich", "State": "NJ", "Zip": "08886", "Excav_company": "W DOWD EXCAVATING", "Neighborhood": "GREENWICH" }, "geometry": { "type": "Point", "coordinates": [ -75.134219186387298, 40.680457022698995 ] } },
{ "type": "Feature", "properties": { "Ticket": 111461703, "Date": "2011-05-26", "Time": "15:04:25-04", "Header": "EMERGENCY", "County": "OCEAN", "Rating": 31, "Longitude": -74.282915766007406, "Latitude": 40.1109205259391, "St_number": "39", "St_name": "Baker", "City": "Asbury Park", "State": "NJ", "Zip": "08527", "Excav_company": "J & B PLUMBING", "Neighborhood": "ARNOLD" }, "geometry": { "type": "Point", "coordinates": [ -74.282915766007406, 40.1109205259391 ] } },
{ "type": "Feature", "properties": { "Ticket": 111041371, "Date": "2011-04-14", "Time": "13:57:47-04", "Header": "EMERGENCY", "County": "BERGEN", "Rating": 24, "Longitude": -74.1395045573461, "Latitude": 40.822191303286793, "St_number": "None", "St_name": "Winthrop", "City": "Bergenfield", "State": "NJ", "Zip": "07110", "Excav_company": "PSE&G", "Neighborhood": "WINDSOR" }, "geometry": { "type": "Point", "coordinates": [ -74.1395045573461, 40.822191303286793 ] } },
{ "type": "Feature", "properties": { "Ticket": 142870834, "Date": "2014-10-14", "Time": "10:51:03-04", "Header": "EMERGENCY", "County": "GLOUCESTER", "Rating": 31, "Longitude": -75.051792995632795, "Latitude": 40.734478097763898, "St_number": "4", "St_name": "Olde", "City": "Broadway", "State": "NJ", "Zip": "07882", "Excav_company": "SOUTH JERSEY GAS", "Neighborhood": "HAINES" }, "geometry": { "type": "Point", "coordinates": [ -75.051792995632795, 40.734478097763898 ] } },
{ "type": "Feature", "properties": { "Ticket": 121290171, "Date": "2012-05-08", "Time": "07:28:08-04", "Header": "EMERGENCY", "County": "MIDDLESEX", "Rating": 33, "Longitude": -75.097963072605907, "Latitude": 39.906965564005901, "St_number": "None", "St_name": "Atlanta", "City": "Camden", "State": "NJ", "Zip": "08104", "Excav_company": "RESOLVE ROOTER PLUMBING SERVIC", "Neighborhood": "SEWELL" }, "geometry": { "type": "Point", "coordinates": [ -75.097963072605907, 39.906965564005901 ] } },
{ "type": "Feature", "properties": { "Ticket": 133240898, "Date": "2013-11-20", "Time": "12:06:22-05", "Header": "EMERGENCY", "County": "BERGEN", "Rating": 18, "Longitude": -74.006761966372792, "Latitude": 40.893701487942202, "St_number": "127", "St_name": "Selvage", "City": "Bogota", "State": "NJ", "Zip": "07666", "Excav_company": "ABSOLUTE CONSTRUCTION", "Neighborhood": null }, "geometry": { "type": "Point", "coordinates": [ -74.006761966372792, 40.893701487942202 ] } },
{ "type": "Feature", "properties": { "Ticket": 121560786, "Date": "2012-06-04", "Time": "10:18:30-04", "Header": "EMERGENCY", "County": "SOMERSET", "Rating": 32, "Longitude": -74.507683081830791, "Latitude": 39.326197823312604, "St_number": "20", "St_name": "Pembroke", "City": "Margate City", "State": "NJ", "Zip": "08402", "Excav_company": "PUBLIC SERVICE ELECTRIC & GAS", "Neighborhood": "WOODS" }, "geometry": { "type": "Point", "coordinates": [ -74.507683081830791, 39.326197823312604 ] } },
{ "type": "Feature", "properties": { "Ticket": 123270005, "Date": "2012-11-22", "Time": "04:46:22-05", "Header": "EMERGENCY", "County": "BURLINGTON", "Rating": 55, "Longitude": -74.143001500451405, "Latitude": 40.427527427056297, "St_number": "None", "St_name": "Borick", "City": "Keyport", "State": "NJ", "Zip": "07730", "Excav_company": "PSEG", "Neighborhood": "LIPPINCOTT" }, "geometry": { "type": "Point", "coordinates": [ -74.143001500451405, 40.427527427056297 ] } },
{ "type": "Feature", "properties": { "Ticket": 112430198, "Date": "2011-08-31", "Time": "07:48:06-04", "Header": "EMERGENCY", "County": "HUDSON", "Rating": 11, "Longitude": -74.157016357652296, "Latitude": 40.764122097766297, "St_number": "1", "St_name": "Park", "City": "Kearny", "State": "NJ", "Zip": "07032", "Excav_company": "E AND D MECHANICAL", "Neighborhood": "AFTON" }, "geometry": { "type": "Point", "coordinates": [ -74.157016357652296, 40.764122097766297 ] } },
{ "type": "Feature", "properties": { "Ticket": 141500485, "Date": "2014-05-30", "Time": "09:28:41-04", "Header": "EMERGENCY", "County": "MERCER", "Rating": 38, "Longitude": -74.747375658992596, "Latitude": 40.245327269077002, "St_number": "None", "St_name": "Princeton", "City": "Lawrenceville", "State": "NJ", "Zip": "08648", "Excav_company": "TRENTON WATER WORKS", "Neighborhood": "SLACK" }, "geometry": { "type": "Point", "coordinates": [ -74.747375658992596, 40.245327269077002 ] } },
{ "type": "Feature", "properties": { "Ticket": 123400270, "Date": "2012-12-05", "Time": "08:28:45-05", "Header": "EMERGENCY", "County": "HUNTERDON", "Rating": 100, "Longitude": -74.588595286445297, "Latitude": 41.110099135662104, "St_number": "None", "St_name": "None", "City": "Franklin", "State": "NJ", "Zip": "None", "Excav_company": "LAMBERTS CABLE SPLICING", "Neighborhood": "SIDNEY" }, "geometry": { "type": "Point", "coordinates": [ -74.588595286445297, 41.110099135662104 ] } },
{ "type": "Feature", "properties": { "Ticket": 141900573, "Date": "2014-07-09", "Time": "09:32:33-04", "Header": "EMERGENCY", "County": "BERGEN", "Rating": 11, "Longitude": -73.930304479082295, "Latitude": 40.938087441408499, "St_number": "28", "St_name": "Robin", "City": "Alpine", "State": "NJ", "Zip": "07620", "Excav_company": "PSE&G", "Neighborhood": "GRAHAM" }, "geometry": { "type": "Point", "coordinates": [ -73.930304479082295, 40.938087441408499 ] } },
{ "type": "Feature", "properties": { "Ticket": 140140166, "Date": "2014-01-14", "Time": "08:12:11-05", "Header": "EMERGENCY", "County": "PASSAIC", "Rating": 19, "Longitude": -74.155807034112399, "Latitude": 40.877185411464097, "St_number": "139", "St_name": "7th", "City": "Clifton", "State": "NJ", "Zip": "07011", "Excav_company": "PASSAIC VALLEY WATER COMMISSIO", "Neighborhood": "CURIE" }, "geometry": { "type": "Point", "coordinates": [ -74.155807034112399, 40.877185411464097 ] } },
{ "type": "Feature", "properties": { "Ticket": 122911578, "Date": "2012-10-17", "Time": "14:12:37-04", "Header": "EMERGENCY", "County": "GLOUCESTER", "Rating": 33, "Longitude": -74.305392180582004, "Latitude": 40.438904844502296, "St_number": "None", "St_name": "Karen", "City": "Brownville", "State": "NJ", "Zip": "08857", "Excav_company": "ATLANTIC CITY ELECTRIC COMPANY", "Neighborhood": "BRENDA" }, "geometry": { "type": "Point", "coordinates": [ -74.305392180582004, 40.438904844502296 ] } },
{ "type": "Feature", "properties": { "Ticket": 112130117, "Date": "2011-08-01", "Time": "07:31:22-04", "Header": "EMERGENCY", "County": "CUMBERLAND", "Rating": 13, "Longitude": -75.246956482006709, "Latitude": 39.448537808586394, "St_number": "8", "St_name": "Lakeside", "City": "Vineland", "State": "NJ", "Zip": "08302", "Excav_company": "CEDARCREST MOBILE HOME PARK", "Neighborhood": "KAYE" }, "geometry": { "type": "Point", "coordinates": [ -75.246956482006709, 39.448537808586394 ] } },
{ "type": "Feature", "properties": { "Ticket": 142320044, "Date": "2014-08-20", "Time": "06:36:26-04", "Header": "EMERGENCY", "County": "MONMOUTH", "Rating": 16, "Longitude": -74.023086958233506, "Latitude": 40.175749948994707, "St_number": "518", "St_name": "13th", "City": "Belmar", "State": "NJ", "Zip": "07719", "Excav_company": "A J PERRI INC", "Neighborhood": null }, "geometry": { "type": "Point", "coordinates": [ -74.023086958233506, 40.175749948994707 ] } },
{ "type": "Feature", "properties": { "Ticket": 122570672, "Date": "2012-09-13", "Time": "10:22:50-04", "Header": "EMERGENCY", "County": "MIDDLESEX", "Rating": 11, "Longitude": -74.284360065085096, "Latitude": 40.392998624436395, "St_number": "2", "St_name": "Erin", "City": "Old Bridge", "State": "NJ", "Zip": "08857", "Excav_company": "RENAISSANCE PROPERTIES", "Neighborhood": "HIGGINS" }, "geometry": { "type": "Point", "coordinates": [ -74.284360065085096, 40.392998624436395 ] } },
{ "type": "Feature", "properties": { "Ticket": 132122306, "Date": "2013-07-31", "Time": "16:36:33-04", "Header": "EMERGENCY", "County": "MIDDLESEX", "Rating": 24, "Longitude": -74.557315190969902, "Latitude": 40.335718313560498, "St_number": "40", "St_name": "Drayton", "City": "Princeton Meadows", "State": "NJ", "Zip": "08536", "Excav_company": "J FLECTHER CREAMER & SON", "Neighborhood": "MADISON" }, "geometry": { "type": "Point", "coordinates": [ -74.557315190969902, 40.335718313560498 ] } },
{ "type": "Feature", "properties": { "Ticket": 130031124, "Date": "2013-01-03", "Time": "12:04:12-05", "Header": "EMERGENCY", "County": "ATLANTIC", "Rating": 13, "Longitude": -74.569023766073997, "Latitude": 39.476563934894706, "St_number": "247", "St_name": "Father Keis", "City": "Pomona", "State": "NJ", "Zip": "08215", "Excav_company": "SOUTH JERSEY GAS", "Neighborhood": "ROSEMARIE" }, "geometry": { "type": "Point", "coordinates": [ -74.569023766073997, 39.476563934894706 ] } },
{ "type": "Feature", "properties": { "Ticket": 143450159, "Date": "2014-12-11", "Time": "08:17:00-05", "Header": "EMERGENCY", "County": "GLOUCESTER", "Rating": 82, "Longitude": -74.596791818640497, "Latitude": 41.071440068430206, "St_number": "None", "St_name": "C Willis", "City": "Ogdensburg", "State": "NJ", "Zip": "07439", "Excav_company": "KEVIN ANDERSONS WELL DRILLING", "Neighborhood": "FRIES MILL" }, "geometry": { "type": "Point", "coordinates": [ -74.596791818640497, 41.071440068430206 ] } },
{ "type": "Feature", "properties": { "Ticket": 123660081, "Date": "2012-12-31", "Time": "07:45:05-05", "Header": "EMERGENCY", "County": "MIDDLESEX", "Rating": 13, "Longitude": -74.614810345236904, "Latitude": 40.330440428154795, "St_number": "9", "St_name": "Birch", "City": "Plainsboro Center", "State": "NJ", "Zip": "08536", "Excav_company": "DRAIN KING", "Neighborhood": null }, "geometry": { "type": "Point", "coordinates": [ -74.614810345236904, 40.330440428154795 ] } },
{ "type": "Feature", "properties": { "Ticket": 143380727, "Date": "2014-12-04", "Time": "10:52:27-05", "Header": "EMERGENCY", "County": "BERGEN", "Rating": 18, "Longitude": -74.0237335818357, "Latitude": 40.8987969823581, "St_number": "1130", "St_name": "Wilson", "City": "Bogota", "State": "NJ", "Zip": "07666", "Excav_company": "PSE&G", "Neighborhood": "NORTHUMBERLAND" }, "geometry": { "type": "Point", "coordinates": [ -74.0237335818357, 40.8987969823581 ] } },
{ "type": "Feature", "properties": { "Ticket": 142101746, "Date": "2014-07-29", "Time": "14:19:57-04", "Header": "EMERGENCY", "County": "BERGEN", "Rating": 11, "Longitude": -74.082896307738707, "Latitude": 40.887181459377601, "St_number": "19", "St_name": "Vreeland", "City": "Lodi", "State": "NJ", "Zip": "07644", "Excav_company": "PSE&G", "Neighborhood": "OUTWATER" }, "geometry": { "type": "Point", "coordinates": [ -74.082896307738707, 40.887181459377601 ] } },
{ "type": "Feature", "properties": { "Ticket": 103560617, "Date": "2010-12-22", "Time": "12:44:35-05", "Header": "EMERGENCY", "County": "BERGEN", "Rating": 11, "Longitude": -74.042373309416504, "Latitude": 40.893131211845606, "St_number": "72", "St_name": "Anderson", "City": "Hackensack", "State": "NJ", "Zip": "07601", "Excav_company": "UNITED WATER", "Neighborhood": "PARK" }, "geometry": { "type": "Point", "coordinates": [ -74.042373309416504, 40.893131211845606 ] } },
{ "type": "Feature", "properties": { "Ticket": 130660697, "Date": "2013-03-07", "Time": "10:59:57-05", "Header": "EMERGENCY", "County": "SOMERSET", "Rating": 40, "Longitude": -74.596358581029591, "Latitude": 40.546106016858204, "St_number": "137", "St_name": "10th", "City": "Manville", "State": "NJ", "Zip": "08835", "Excav_company": "PSE&G", "Neighborhood": "WASHINGTON" }, "geometry": { "type": "Point", "coordinates": [ -74.596358581029591, 40.546106016858204 ] } },
{ "type": "Feature", "properties": { "Ticket": 130790705, "Date": "2013-03-20", "Time": "10:20:58-04", "Header": "EMERGENCY", "County": "CAPE MAY", "Rating": 41, "Longitude": -74.708938052686008, "Latitude": 39.1298870802758, "St_number": "7901", "St_name": "Landis", "City": "Sea Isle City", "State": "NJ", "Zip": "08243", "Excav_company": "GARDEN STATE DREDGING", "Neighborhood": "79TH" }, "geometry": { "type": "Point", "coordinates": [ -74.708938052686008, 39.1298870802758 ] } },
{ "type": "Feature", "properties": { "Ticket": 102360398, "Date": "2010-08-24", "Time": "09:07:27-04", "Header": "EMERGENCY", "County": "MERCER", "Rating": 16, "Longitude": -74.744960908941295, "Latitude": 40.234111465735005, "St_number": "147", "St_name": "Sherman", "City": "Trenton", "State": "NJ", "Zip": "08638", "Excav_company": "TRENTON WATER WORKS", "Neighborhood": "ST JOES" }, "geometry": { "type": "Point", "coordinates": [ -74.744960908941295, 40.234111465735005 ] } },
{ "type": "Feature", "properties": { "Ticket": 121101198, "Date": "2012-04-19", "Time": "11:47:43-04", "Header": "EMERGENCY", "County": "UNION", "Rating": 36, "Longitude": -73.98359513180209, "Latitude": 40.859334281878603, "St_number": "101", "St_name": "Chestnut", "City": "Leonia", "State": "NJ", "Zip": "07605", "Excav_company": "ELIZABETHTOWN GAS", "Neighborhood": "HOBSON" }, "geometry": { "type": "Point", "coordinates": [ -73.98359513180209, 40.859334281878603 ] } },
{ "type": "Feature", "properties": { "Ticket": 132531195, "Date": "2013-09-10", "Time": "11:43:13-04", "Header": "EMERGENCY", "County": "SALEM", "Rating": 21, "Longitude": -74.249000673017903, "Latitude": 39.726139102544998, "St_number": "18", "St_name": "Willow", "City": "Beach Haven West", "State": "NJ", "Zip": "08050", "Excav_company": "SOUTH JERSEY GAS", "Neighborhood": "WILLOW GROVE" }, "geometry": { "type": "Point", "coordinates": [ -74.249000673017903, 39.726139102544998 ] } },
{ "type": "Feature", "properties": { "Ticket": 100990440, "Date": "2010-04-09", "Time": "09:34:32-04", "Header": "EMERGENCY", "County": "CAPE MAY", "Rating": 16, "Longitude": -74.635597667288295, "Latitude": 39.222945831463797, "St_number": "5610", "St_name": "Central", "City": "Ocean City", "State": "NJ", "Zip": "08226", "Excav_company": "NEW JERSEY AMERICAN WATER", "Neighborhood": "56TH" }, "geometry": { "type": "Point", "coordinates": [ -74.635597667288295, 39.222945831463797 ] } },
{ "type": "Feature", "properties": { "Ticket": 123490017, "Date": "2012-12-14", "Time": "05:59:35-05", "Header": "EMERGENCY", "County": "ATLANTIC", "Rating": 32, "Longitude": -74.48365367126641, "Latitude": 40.561587504573204, "St_number": "None", "St_name": "Ventnor", "City": "Society Hill", "State": "NJ", "Zip": "08854", "Excav_company": "J.F. KIELY", "Neighborhood": "BOSTON" }, "geometry": { "type": "Point", "coordinates": [ -74.48365367126641, 40.561587504573204 ] } },
{ "type": "Feature", "properties": { "Ticket": 123040002, "Date": "2012-10-30", "Time": "00:05:49-04", "Header": "EMERGENCY", "County": "SOMERSET", "Rating": 23, "Longitude": -74.589600285765414, "Latitude": 39.4254476868878, "St_number": "42", "St_name": "Surrey", "City": "Absecon", "State": "NJ", "Zip": "08234", "Excav_company": "PUBLIC SERVICE ELECTRIC & GAS", "Neighborhood": "RIVERVIEW" }, "geometry": { "type": "Point", "coordinates": [ -74.589600285765414, 39.4254476868878 ] } },
{ "type": "Feature", "properties": { "Ticket": 112311676, "Date": "2011-08-19", "Time": "17:56:40-04", "Header": "EMERGENCY", "County": "BURLINGTON", "Rating": 20, "Longitude": -75.002051014099507, "Latitude": 39.959980977149897, "St_number": "324", "St_name": "Maple", "City": "Maple Shade", "State": "NJ", "Zip": "08052", "Excav_company": "BOOTH MECHANICAL", "Neighborhood": "MILL" }, "geometry": { "type": "Point", "coordinates": [ -75.002051014099507, 39.959980977149897 ] } },
{ "type": "Feature", "properties": { "Ticket": 111640092, "Date": "2011-06-13", "Time": "07:27:42-04", "Header": "EMERGENCY", "County": "ESSEX", "Rating": 11, "Longitude": -74.290530423554998, "Latitude": 40.838229608055208, "St_number": "8", "St_name": "Birkendene", "City": "Caldwell", "State": "NJ", "Zip": "07006", "Excav_company": "CARNER BROTHERS", "Neighborhood": "WESTVILLE" }, "geometry": { "type": "Point", "coordinates": [ -74.290530423554998, 40.838229608055208 ] } },
{ "type": "Feature", "properties": { "Ticket": 121820205, "Date": "2012-06-30", "Time": "21:30:07-04", "Header": "EMERGENCY", "County": "ATLANTIC", "Rating": 62, "Longitude": -73.983675531130089, "Latitude": 40.322386622087897, "St_number": "None", "St_name": "Cookman", "City": "Long Branch", "State": "NJ", "Zip": "07740", "Excav_company": "VERIZON", "Neighborhood": "COLTON" }, "geometry": { "type": "Point", "coordinates": [ -73.983675531130089, 40.322386622087897 ] } },
{ "type": "Feature", "properties": { "Ticket": 142830400, "Date": "2014-10-10", "Time": "09:18:21-04", "Header": "EMERGENCY", "County": "BERGEN", "Rating": 46, "Longitude": -74.155312762637294, "Latitude": 41.05569432027, "St_number": "None", "St_name": "Donna", "City": "Ramsey", "State": "NJ", "Zip": "07446", "Excav_company": "DELLARICA & SONS", "Neighborhood": "DUFFY" }, "geometry": { "type": "Point", "coordinates": [ -74.155312762637294, 41.05569432027 ] } },
{ "type": "Feature", "properties": { "Ticket": 101331751, "Date": "2010-05-13", "Time": "13:48:18-04", "Header": "EMERGENCY", "County": "HUDSON", "Rating": 106, "Longitude": -74.554299417603602, "Latitude": 39.371859269202503, "St_number": "None", "St_name": "None", "City": "Northfield", "State": "NJ", "Zip": "None", "Excav_company": "J. FLETCHER CREAMER & SON INC", "Neighborhood": "BROADWAY" }, "geometry": { "type": "Point", "coordinates": [ -74.554299417603602, 39.371859269202503 ] } },
{ "type": "Feature", "properties": { "Ticket": 112851277, "Date": "2011-10-12", "Time": "14:12:25-04", "Header": "EMERGENCY", "County": "SUSSEX", "Rating": 33, "Longitude": -74.778640076293101, "Latitude": 41.079843980270702, "St_number": "None", "St_name": "Parson", "City": "Glen Gardner", "State": "NJ", "Zip": "08827", "Excav_company": "JCP&L", "Neighborhood": "CO RD 626" }, "geometry": { "type": "Point", "coordinates": [ -74.778640076293101, 41.079843980270702 ] } },
{ "type": "Feature", "properties": { "Ticket": 111121163, "Date": "2011-04-22", "Time": "18:15:44-04", "Header": "EMERGENCY", "County": "SOMERSET", "Rating": 13, "Longitude": -74.656610680753303, "Latitude": 40.504447431806604, "St_number": "507", "St_name": "Windsor", "City": "Manville", "State": "NJ", "Zip": "08844", "Excav_company": "PSE&G", "Neighborhood": "VICTORIA" }, "geometry": { "type": "Point", "coordinates": [ -74.656610680753303, 40.504447431806604 ] } },
{ "type": "Feature", "properties": { "Ticket": 131931621, "Date": "2013-07-12", "Time": "14:41:21-04", "Header": "EMERGENCY", "County": "MIDDLESEX", "Rating": 87, "Longitude": -75.010442276253997, "Latitude": 39.699151439054205, "St_number": "None", "St_name": "Glen Haven", "City": "Folsom", "State": "NJ", "Zip": "08094", "Excav_company": "J FLETCHER CREAMER & SON", "Neighborhood": "BLVD OF THE EAGLES" }, "geometry": { "type": "Point", "coordinates": [ -75.010442276253997, 39.699151439054205 ] } },
{ "type": "Feature", "properties": { "Ticket": 133290492, "Date": "2013-11-25", "Time": "09:33:06-05", "Header": "EMERGENCY", "County": "BURLINGTON", "Rating": 18, "Longitude": -74.974338020407089, "Latitude": 39.975094335135104, "St_number": "2", "St_name": "Twosome", "City": "Moorestown-Lenola", "State": "NJ", "Zip": "08057", "Excav_company": "M & N ASSOCIATES COMPANY", "Neighborhood": "WHITTENDALE" }, "geometry": { "type": "Point", "coordinates": [ -74.974338020407089, 39.975094335135104 ] } },
{ "type": "Feature", "properties": { "Ticket": 150091343, "Date": "2015-01-09", "Time": "15:37:54-05", "Header": "EMERGENCY", "County": "ESSEX", "Rating": 18, "Longitude": -74.195876021339899, "Latitude": 40.809939868179299, "St_number": "125", "St_name": "Essex", "City": "Brookdale", "State": "NJ", "Zip": "07003", "Excav_company": "PSEG", "Neighborhood": "COMLEY" }, "geometry": { "type": "Point", "coordinates": [ -74.195876021339899, 40.809939868179299 ] } },
{ "type": "Feature", "properties": { "Ticket": 100760704, "Date": "2010-03-17", "Time": "11:06:35-04", "Header": "EMERGENCY", "County": "CAMDEN", "Rating": 34, "Longitude": -74.197997775094493, "Latitude": 40.037042374130102, "St_number": "None", "St_name": "Chanticleer", "City": "Toms River", "State": "NJ", "Zip": "08755", "Excav_company": "M & N ASSOCIATES", "Neighborhood": "KRESSON" }, "geometry": { "type": "Point", "coordinates": [ -74.197997775094493, 40.037042374130102 ] } },
{ "type": "Feature", "properties": { "Ticket": 141611045, "Date": "2014-06-10", "Time": "10:59:54-04", "Header": "EMERGENCY", "County": "CAPE MAY", "Rating": 16, "Longitude": -74.840703588264802, "Latitude": 38.969672399477794, "St_number": "7609", "St_name": "Pacific", "City": "Wildwood Crest", "State": "NJ", "Zip": "08260", "Excav_company": "GARDEN STATE DREDGING", "Neighborhood": "FARRAGUT" }, "geometry": { "type": "Point", "coordinates": [ -74.840703588264802, 38.969672399477794 ] } },
{ "type": "Feature", "properties": { "Ticket": 123040053, "Date": "2012-10-30", "Time": "08:56:18-04", "Header": "EMERGENCY", "County": "MORRIS", "Rating": 64, "Longitude": -74.369919465249595, "Latitude": 40.881936303566604, "St_number": "50", "St_name": "Cain", "City": "Boonton", "State": "NJ", "Zip": "07045", "Excav_company": "PSE&G", "Neighborhood": "COLONIAL" }, "geometry": { "type": "Point", "coordinates": [ -74.369919465249595, 40.881936303566604 ] } },
{ "type": "Feature", "properties": { "Ticket": 150270300, "Date": "2015-01-27", "Time": "11:31:58-05", "Header": "EMERGENCY", "County": "ESSEX", "Rating": 82, "Longitude": -74.359274888043004, "Latitude": 39.940185657489998, "St_number": "None", "St_name": "Petunia", "City": "Cedar Glen West", "State": "NJ", "Zip": "08759", "Excav_company": "PSE&G", "Neighborhood": "LYNWOOD" }, "geometry": { "type": "Point", "coordinates": [ -74.359274888043004, 39.940185657489998 ] } },
{ "type": "Feature", "properties": { "Ticket": 113130331, "Date": "2011-11-09", "Time": "08:41:23-05", "Header": "EMERGENCY", "County": "ESSEX", "Rating": 20, "Longitude": -74.060427596189797, "Latitude": 40.152773414923701, "St_number": "14", "St_name": "Manor", "City": "Belmar", "State": "NJ", "Zip": "07719", "Excav_company": "PSE&G", "Neighborhood": "PARK" }, "geometry": { "type": "Point", "coordinates": [ -74.060427596189797, 40.152773414923701 ] } },
{ "type": "Feature", "properties": { "Ticket": 122770142, "Date": "2012-10-03", "Time": "07:45:02-04", "Header": "EMERGENCY", "County": "MORRIS", "Rating": 28, "Longitude": -74.510958911794702, "Latitude": 40.580694705865199, "St_number": "16", "St_name": "Lynn", "City": "Middlesex", "State": "NJ", "Zip": "08846", "Excav_company": "PSE&G", "Neighborhood": "BROOKSIDE" }, "geometry": { "type": "Point", "coordinates": [ -74.510958911794702, 40.580694705865199 ] } },
{ "type": "Feature", "properties": { "Ticket": 140460001, "Date": "2014-02-15", "Time": "01:06:26-05", "Header": "EMERGENCY", "County": "BERGEN", "Rating": 13, "Longitude": -74.129972053943504, "Latitude": 41.084051962509001, "St_number": "1111", "St_name": "Devon", "City": "Franklin Lakes", "State": "NJ", "Zip": "07430", "Excav_company": "ORANGE AND ROCKLAND UTILITIES", "Neighborhood": "MASONICUS" }, "geometry": { "type": "Point", "coordinates": [ -74.129972053943504, 41.084051962509001 ] } },
{ "type": "Feature", "properties": { "Ticket": 132172166, "Date": "2013-08-05", "Time": "15:10:11-04", "Header": "EMERGENCY", "County": "CAMDEN", "Rating": 31, "Longitude": -75.016598942759089, "Latitude": 39.815620685139706, "St_number": "931", "St_name": "Laurel", "City": "Lindenwold", "State": "NJ", "Zip": "08021", "Excav_company": "SOUTH JERSEY GAS CO.", "Neighborhood": "CHEWS LANDING" }, "geometry": { "type": "Point", "coordinates": [ -75.016598942759089, 39.815620685139706 ] } },
{ "type": "Feature", "properties": { "Ticket": 111180574, "Date": "2011-04-28", "Time": "10:02:24-04", "Header": "EMERGENCY", "County": "CAMDEN", "Rating": 93, "Longitude": -74.3352962817128, "Latitude": 39.632258761628101, "St_number": "None", "St_name": "Hamble", "City": "Tuckerton", "State": "NJ", "Zip": "08087", "Excav_company": "PSE&G", "Neighborhood": "SANDRINGHAM" }, "geometry": { "type": "Point", "coordinates": [ -74.3352962817128, 39.632258761628101 ] } },
{ "type": "Feature", "properties": { "Ticket": 110820320, "Date": "2011-03-23", "Time": "10:01:05-04", "Header": "EMERGENCY", "County": "MERCER", "Rating": 13, "Longitude": -74.729217516259695, "Latitude": 40.308077752945792, "St_number": "508", "St_name": "Bergen", "City": "Lawrenceville", "State": "NJ", "Zip": "08648", "Excav_company": "LAWRENCEVILLE MECHANICAL CONTR", "Neighborhood": "MARK CERMELE" }, "geometry": { "type": "Point", "coordinates": [ -74.729217516259695, 40.308077752945792 ] } },
{ "type": "Feature", "properties": { "Ticket": 141810995, "Date": "2014-06-30", "Time": "11:14:07-04", "Header": "EMERGENCY", "County": "UNION", "Rating": 100, "Longitude": -74.191110320724093, "Latitude": 40.665532666038402, "St_number": "None", "St_name": "None", "City": "Elizabeth", "State": "NJ", "Zip": "None", "Excav_company": "VERIZON", "Neighborhood": "ELIZABETH" }, "geometry": { "type": "Point", "coordinates": [ -74.191110320724093, 40.665532666038402 ] } },
{ "type": "Feature", "properties": { "Ticket": 131610064, "Date": "2013-06-10", "Time": "07:05:27-04", "Header": "EMERGENCY", "County": "MIDDLESEX", "Rating": 48, "Longitude": -74.003077288625491, "Latitude": 40.9420757332352, "St_number": "None", "St_name": "Prospect", "City": "Dumont", "State": "NJ", "Zip": "07628", "Excav_company": "P M CONSTRUCTION CORP", "Neighborhood": "PERRINEVILLE" }, "geometry": { "type": "Point", "coordinates": [ -74.003077288625491, 40.9420757332352 ] } },
{ "type": "Feature", "properties": { "Ticket": 103212004, "Date": "2010-11-17", "Time": "16:44:25-05", "Header": "EMERGENCY", "County": "UNION", "Rating": 18, "Longitude": -74.970304597018696, "Latitude": 39.776064511404101, "St_number": "1001", "St_name": "Cranford", "City": "Pine Hill", "State": "NJ", "Zip": "08021", "Excav_company": "NEW JERSEY AMERICAN WATER COMP", "Neighborhood": "SAINT GEORGES" }, "geometry": { "type": "Point", "coordinates": [ -74.970304597018696, 39.776064511404101 ] } },
{ "type": "Feature", "properties": { "Ticket": 131260315, "Date": "2013-05-06", "Time": "08:34:20-04", "Header": "EMERGENCY", "County": "OCEAN", "Rating": 16, "Longitude": -74.045566001509101, "Latitude": 40.067578795348503, "St_number": "549", "St_name": "Lake", "City": "Bay Head", "State": "NJ", "Zip": "08742", "Excav_company": "NEW JERSEY AMERICAN WATER", "Neighborhood": "MOUNT" }, "geometry": { "type": "Point", "coordinates": [ -74.045566001509101, 40.067578795348503 ] } },
{ "type": "Feature", "properties": { "Ticket": 121290021, "Date": "2012-05-08", "Time": "05:38:22-04", "Header": "EMERGENCY", "County": "MONMOUTH", "Rating": 36, "Longitude": -74.045657307653499, "Latitude": 40.130950054773201, "St_number": "141", "St_name": "Sea Girt", "City": "Manasquan", "State": "NJ", "Zip": "08736", "Excav_company": "J FLETCHER CREAMER AND SONS", "Neighborhood": "STATE RTE 71" }, "geometry": { "type": "Point", "coordinates": [ -74.045657307653499, 40.130950054773201 ] } },
{ "type": "Feature", "properties": { "Ticket": 100780005, "Date": "2010-03-19", "Time": "01:12:48-04", "Header": "EMERGENCY", "County": "HUDSON", "Rating": 41, "Longitude": -74.140928091474706, "Latitude": 40.782958256919102, "St_number": "100", "St_name": "Belleville", "City": "Kearny", "State": "NJ", "Zip": "07032", "Excav_company": "PSE&G", "Neighborhood": "BEECH" }, "geometry": { "type": "Point", "coordinates": [ -74.140928091474706, 40.782958256919102 ] } },
{ "type": "Feature", "properties": { "Ticket": 101540466, "Date": "2010-06-03", "Time": "09:36:46-04", "Header": "EMERGENCY", "County": "CAMDEN", "Rating": 38, "Longitude": -75.027814593983209, "Latitude": 39.901522581601, "St_number": "1", "St_name": "Kings", "City": "Haddonfield", "State": "NJ", "Zip": "08033", "Excav_company": "LANTIER CONSTRUCTION COMPANY", "Neighborhood": "7TH" }, "geometry": { "type": "Point", "coordinates": [ -75.027814593983209, 39.901522581601 ] } },
{ "type": "Feature", "properties": { "Ticket": 133290119, "Date": "2013-11-25", "Time": "07:36:27-05", "Header": "EMERGENCY", "County": "MERCER", "Rating": 22, "Longitude": -73.96044556936279, "Latitude": 40.886619374052103, "St_number": "19", "St_name": "Woodland", "City": "Englewood", "State": "NJ", "Zip": "07631", "Excav_company": "PUBLIC SERVICE ELECTRIC AND GA", "Neighborhood": "STATE RTE 31" }, "geometry": { "type": "Point", "coordinates": [ -73.96044556936279, 40.886619374052103 ] } },
{ "type": "Feature", "properties": { "Ticket": 111891004, "Date": "2011-07-08", "Time": "12:27:07-04", "Header": "EMERGENCY", "County": "MONMOUTH", "Rating": 40, "Longitude": -74.126047044442501, "Latitude": 40.075484374587298, "St_number": "220", "St_name": "Page", "City": "Ramtown", "State": "NJ", "Zip": "08724", "Excav_company": "VERIZON", "Neighborhood": "MADIGAN" }, "geometry": { "type": "Point", "coordinates": [ -74.126047044442501, 40.075484374587298 ] } },
{ "type": "Feature", "properties": { "Ticket": 101530947, "Date": "2010-06-02", "Time": "10:58:14-04", "Header": "EMERGENCY", "County": "ESSEX", "Rating": 16, "Longitude": -74.207182174497703, "Latitude": 40.773440390344895, "St_number": "426", "St_name": "Springdale", "City": "East Orange", "State": "NJ", "Zip": "07017", "Excav_company": "PSE&G", "Neighborhood": "LINCOLN" }, "geometry": { "type": "Point", "coordinates": [ -74.207182174497703, 40.773440390344895 ] } },
{ "type": "Feature", "properties": { "Ticket": 133200061, "Date": "2013-11-16", "Time": "08:18:03-05", "Header": "EMERGENCY", "County": "ESSEX", "Rating": 25, "Longitude": -74.00868887278979, "Latitude": 40.289594836104101, "St_number": "18", "St_name": "Fairway", "City": "West Long Branch", "State": "NJ", "Zip": "07764", "Excav_company": "AAA- ABLE PLUMBING & HEATING", "Neighborhood": "BARBARA" }, "geometry": { "type": "Point", "coordinates": [ -74.00868887278979, 40.289594836104101 ] } },
{ "type": "Feature", "properties": { "Ticket": 101470120, "Date": "2010-05-27", "Time": "07:42:22-04", "Header": "EMERGENCY", "County": "PASSAIC", "Rating": 13, "Longitude": -74.153141908493993, "Latitude": 40.913775971701497, "St_number": "783", "St_name": "22nd", "City": "Paterson", "State": "NJ", "Zip": "07513", "Excav_company": "MILLER PIPE LINE", "Neighborhood": "17TH" }, "geometry": { "type": "Point", "coordinates": [ -74.153141908493993, 40.913775971701497 ] } },
{ "type": "Feature", "properties": { "Ticket": 142810012, "Date": "2014-10-08", "Time": "03:21:58-04", "Header": "EMERGENCY", "County": "GLOUCESTER", "Rating": 18, "Longitude": -75.0113186608841, "Latitude": 39.742439698252198, "St_number": "11", "St_name": "Mulberry", "City": "Camden", "State": "NJ", "Zip": "08081", "Excav_company": "ATLANTIC CITY ELECTRIC", "Neighborhood": "HARVEST" }, "geometry": { "type": "Point", "coordinates": [ -75.0113186608841, 39.742439698252198 ] } },
{ "type": "Feature", "properties": { "Ticket": 120890228, "Date": "2012-03-29", "Time": "08:38:54-04", "Header": "EMERGENCY", "County": "MONMOUTH", "Rating": 24, "Longitude": -74.080568315567803, "Latitude": 40.412964880226397, "St_number": "30", "St_name": "Galloping", "City": "Belford", "State": "NJ", "Zip": "07718", "Excav_company": "JE MOWERY & SON EXCAVATING INC", "Neighborhood": "GALLOPING HILL" }, "geometry": { "type": "Point", "coordinates": [ -74.080568315567803, 40.412964880226397 ] } },
{ "type": "Feature", "properties": { "Ticket": 111860769, "Date": "2011-07-05", "Time": "10:28:39-04", "Header": "EMERGENCY", "County": "SOMERSET", "Rating": 51, "Longitude": -74.345111151408091, "Latitude": 39.585348768901795, "St_number": "13", "St_name": "Boom", "City": "Tuckerton", "State": "NJ", "Zip": "08087", "Excav_company": "R & R CONSTRUCTION COMPANY INC", "Neighborhood": "PLEASANT VIEW" }, "geometry": { "type": "Point", "coordinates": [ -74.345111151408091, 39.585348768901795 ] } },
{ "type": "Feature", "properties": { "Ticket": 123660561, "Date": "2012-12-31", "Time": "11:38:39-05", "Header": "EMERGENCY", "County": "MONMOUTH", "Rating": 18, "Longitude": -74.115176148267906, "Latitude": 40.423962631655797, "St_number": "2", "St_name": "Mercer", "City": "Belford", "State": "NJ", "Zip": "07758", "Excav_company": "NJ AMERICAN WATER", "Neighborhood": "MAIN" }, "geometry": { "type": "Point", "coordinates": [ -74.115176148267906, 40.423962631655797 ] } },
{ "type": "Feature", "properties": { "Ticket": 123030467, "Date": "2012-10-29", "Time": "16:18:13-04", "Header": "EMERGENCY", "County": "BERGEN", "Rating": 31, "Longitude": -74.03877875254021, "Latitude": 40.889836906967602, "St_number": "365", "St_name": "River", "City": "Hackensack", "State": "NJ", "Zip": "07601", "Excav_company": "PSE&G", "Neighborhood": "MARION" }, "geometry": { "type": "Point", "coordinates": [ -74.03877875254021, 40.889836906967602 ] } },
{ "type": "Feature", "properties": { "Ticket": 112300051, "Date": "2011-08-18", "Time": "06:44:46-04", "Header": "EMERGENCY", "County": "GLOUCESTER", "Rating": 43, "Longitude": -74.832131838764795, "Latitude": 39.071746938428795, "St_number": "None", "St_name": "Hereford", "City": "Cape May Court House", "State": "NJ", "Zip": "08210", "Excav_company": "MILLER UNDERGROUND", "Neighborhood": "BODO OTTO" }, "geometry": { "type": "Point", "coordinates": [ -74.832131838764795, 39.071746938428795 ] } },
{ "type": "Feature", "properties": { "Ticket": 130441282, "Date": "2013-02-13", "Time": "14:24:46-05", "Header": "EMERGENCY", "County": "MIDDLESEX", "Rating": 78, "Longitude": -74.295520826230202, "Latitude": 40.427287321897502, "St_number": "None", "St_name": "Spring Hill", "City": "Brownville", "State": "NJ", "Zip": "08857", "Excav_company": "OLD BRIDGE M.U.A.", "Neighborhood": "STATE RTE 18" }, "geometry": { "type": "Point", "coordinates": [ -74.295520826230202, 40.427287321897502 ] } },
{ "type": "Feature", "properties": { "Ticket": 132980273, "Date": "2013-10-25", "Time": "08:44:29-04", "Header": "EMERGENCY", "County": "ESSEX", "Rating": 18, "Longitude": -74.266552039306205, "Latitude": 40.842733010654399, "St_number": "106", "St_name": "Forest", "City": "Caldwell", "State": "NJ", "Zip": "07006", "Excav_company": "PSE&G", "Neighborhood": "HARRISON" }, "geometry": { "type": "Point", "coordinates": [ -74.266552039306205, 40.842733010654399 ] } },
{ "type": "Feature", "properties": { "Ticket": 103151104, "Date": "2010-11-11", "Time": "15:16:53-05", "Header": "EMERGENCY", "County": "MONMOUTH", "Rating": 16, "Longitude": -74.025203852983509, "Latitude": 40.222209064612201, "St_number": "1604", "St_name": "Sewall", "City": "Asbury Park", "State": "NJ", "Zip": "07712", "Excav_company": "JEFF YOUNG'S WATER AND SEWER", "Neighborhood": "RIDGE" }, "geometry": { "type": "Point", "coordinates": [ -74.025203852983509, 40.222209064612201 ] } },
{ "type": "Feature", "properties": { "Ticket": 111512434, "Date": "2011-05-31", "Time": "15:49:45-04", "Header": "EMERGENCY", "County": "UNION", "Rating": 11, "Longitude": -74.350884730817, "Latitude": 40.639269640488898, "St_number": "713", "St_name": "Shadowlawn", "City": "Westfield", "State": "NJ", "Zip": "07090", "Excav_company": "NEW JERSEY AMERICAN WATER COMP", "Neighborhood": "HYSLIP" }, "geometry": { "type": "Point", "coordinates": [ -74.350884730817, 40.639269640488898 ] } },
{ "type": "Feature", "properties": { "Ticket": 142450144, "Date": "2014-09-02", "Time": "07:43:42-04", "Header": "EMERGENCY", "County": "ESSEX", "Rating": 13, "Longitude": -74.183379650411908, "Latitude": 40.772441841252707, "St_number": "502", "St_name": "9th", "City": "Newark", "State": "NJ", "Zip": "07107", "Excav_company": "CITY OF NEWARK WATER DEPT.", "Neighborhood": "BERKELEY" }, "geometry": { "type": "Point", "coordinates": [ -74.183379650411908, 40.772441841252707 ] } },
{ "type": "Feature", "properties": { "Ticket": 142400644, "Date": "2014-08-28", "Time": "10:42:09-04", "Header": "EMERGENCY", "County": "MERCER", "Rating": 31, "Longitude": -74.765993053218196, "Latitude": 40.222800403893793, "St_number": "1", "St_name": "Bank", "City": "Trenton", "State": "NJ", "Zip": "08618", "Excav_company": "PSE&G", "Neighborhood": "WILLOW" }, "geometry": { "type": "Point", "coordinates": [ -74.765993053218196, 40.222800403893793 ] } },
{ "type": "Feature", "properties": { "Ticket": 113400567, "Date": "2011-12-06", "Time": "09:50:51-05", "Header": "EMERGENCY", "County": "BERGEN", "Rating": 11, "Longitude": -74.122061121568095, "Latitude": 40.898540114498296, "St_number": "26", "St_name": "Memorial", "City": "Elmwood Park", "State": "NJ", "Zip": "07407", "Excav_company": "MILLER PIPELINE", "Neighborhood": "WALNUT" }, "geometry": { "type": "Point", "coordinates": [ -74.122061121568095, 40.898540114498296 ] } },
{ "type": "Feature", "properties": { "Ticket": 140630102, "Date": "2014-03-04", "Time": "07:28:30-05", "Header": "EMERGENCY", "County": "BERGEN", "Rating": 31, "Longitude": -74.123291829673789, "Latitude": 40.9547146928251, "St_number": "1", "St_name": "Kirkwood", "City": "Glen Rock", "State": "NJ", "Zip": "07452", "Excav_company": "PSE&G", "Neighborhood": "RADBURN" }, "geometry": { "type": "Point", "coordinates": [ -74.123291829673789, 40.9547146928251 ] } },
{ "type": "Feature", "properties": { "Ticket": 150081511, "Date": "2015-01-08", "Time": "15:57:47-05", "Header": "EMERGENCY", "County": "ESSEX", "Rating": 65, "Longitude": -75.233261068560196, "Latitude": 39.504018864749703, "St_number": "90", "St_name": "Parsonage", "City": "Seabrook Farms", "State": "NJ", "Zip": "08302", "Excav_company": "PSE&G", "Neighborhood": "FAIRVIEW" }, "geometry": { "type": "Point", "coordinates": [ -75.233261068560196, 39.504018864749703 ] } },
{ "type": "Feature", "properties": { "Ticket": 120900251, "Date": "2012-03-30", "Time": "08:44:24-04", "Header": "EMERGENCY", "County": "BURLINGTON", "Rating": 27, "Longitude": -74.787518470672296, "Latitude": 40.233671316849104, "St_number": "142", "St_name": "Niagara", "City": "Trenton", "State": "NJ", "Zip": "08618", "Excav_company": "PSE&G", "Neighborhood": "NIMITZ" }, "geometry": { "type": "Point", "coordinates": [ -74.787518470672296, 40.233671316849104 ] } },
{ "type": "Feature", "properties": { "Ticket": 131970447, "Date": "2013-07-16", "Time": "08:54:30-04", "Header": "EMERGENCY", "County": "UNION", "Rating": 11, "Longitude": -74.192973148637094, "Latitude": 40.654694912241503, "St_number": "424", "St_name": "Livingston", "City": "Elizabeth", "State": "NJ", "Zip": "07206", "Excav_company": "NEW JERSEY AMERICAN WATER", "Neighborhood": "4TH" }, "geometry": { "type": "Point", "coordinates": [ -74.192973148637094, 40.654694912241503 ] } },
{ "type": "Feature", "properties": { "Ticket": 120250095, "Date": "2012-01-25", "Time": "07:42:16-05", "Header": "EMERGENCY", "County": "SOMERSET", "Rating": 80, "Longitude": -74.609222028899197, "Latitude": 40.685267465900104, "St_number": "382", "St_name": "Old Mine Brook", "City": "Far Hills", "State": "NJ", "Zip": "07931", "Excav_company": "MATARAZZO EXCAVATING & MASONRY", "Neighborhood": "WHITENACK" }, "geometry": { "type": "Point", "coordinates": [ -74.609222028899197, 40.685267465900104 ] } },
{ "type": "Feature", "properties": { "Ticket": 132830715, "Date": "2013-10-10", "Time": "10:28:02-04", "Header": "EMERGENCY", "County": "CAMDEN", "Rating": 29, "Longitude": -75.042314548953499, "Latitude": 39.8845250322575, "St_number": "624", "St_name": "Clinton", "City": "Haddonfield", "State": "NJ", "Zip": "08033", "Excav_company": "NEW JERSEY AMERICAN WATER COMP", "Neighborhood": "OAKLAWN" }, "geometry": { "type": "Point", "coordinates": [ -75.042314548953499, 39.8845250322575 ] } },
{ "type": "Feature", "properties": { "Ticket": 132602065, "Date": "2013-09-17", "Time": "14:36:20-04", "Header": "EMERGENCY", "County": "UNION", "Rating": 27, "Longitude": -74.246807578955398, "Latitude": 40.658736763642004, "St_number": "399", "St_name": "Linden", "City": "Roselle", "State": "NJ", "Zip": "07203", "Excav_company": "F M R CONTRACTING", "Neighborhood": "PARK" }, "geometry": { "type": "Point", "coordinates": [ -74.246807578955398, 40.658736763642004 ] } },
{ "type": "Feature", "properties": { "Ticket": 110630119, "Date": "2011-03-04", "Time": "08:00:21-05", "Header": "EMERGENCY", "County": "UNION", "Rating": 88, "Longitude": -74.373155363582995, "Latitude": 40.606830146303103, "St_number": "None", "St_name": "Carri Farm", "City": "Fanwood", "State": "NJ", "Zip": "07076", "Excav_company": "ELIZABETHTOWN GAS COMPANY", "Neighborhood": "SELF MASTER" }, "geometry": { "type": "Point", "coordinates": [ -74.373155363582995, 40.606830146303103 ] } },
{ "type": "Feature", "properties": { "Ticket": 112360061, "Date": "2011-08-24", "Time": "07:06:49-04", "Header": "EMERGENCY", "County": "BERGEN", "Rating": 40, "Longitude": -74.935488607911211, "Latitude": 39.012948768316001, "St_number": "None", "St_name": "Union", "City": "Villas", "State": "NJ", "Zip": "08251", "Excav_company": "PSE&G", "Neighborhood": "4TH" }, "geometry": { "type": "Point", "coordinates": [ -74.935488607911211, 39.012948768316001 ] } },
{ "type": "Feature", "properties": { "Ticket": 100960134, "Date": "2010-04-06", "Time": "07:39:03-04", "Header": "EMERGENCY", "County": "BERGEN", "Rating": 16, "Longitude": -73.996004355266905, "Latitude": 40.820358298087896, "St_number": "431", "St_name": "Morningside", "City": "Fairview", "State": "NJ", "Zip": "07022", "Excav_company": "UNITED WATER", "Neighborhood": "7TH" }, "geometry": { "type": "Point", "coordinates": [ -73.996004355266905, 40.820358298087896 ] } },
{ "type": "Feature", "properties": { "Ticket": 121140550, "Date": "2012-04-23", "Time": "09:14:56-04", "Header": "EMERGENCY", "County": "CAMDEN", "Rating": 11, "Longitude": -75.033084006776093, "Latitude": 39.884421587567395, "St_number": "1016", "St_name": "Greenmount", "City": "Haddonfield", "State": "NJ", "Zip": "08033", "Excav_company": "PSE&G", "Neighborhood": "COLONIAL RIDGE" }, "geometry": { "type": "Point", "coordinates": [ -75.033084006776093, 39.884421587567395 ] } },
{ "type": "Feature", "properties": { "Ticket": 130920777, "Date": "2013-04-02", "Time": "10:26:50-04", "Header": "EMERGENCY", "County": "HUDSON", "Rating": 100, "Longitude": -74.109323527878701, "Latitude": 40.664891605098703, "St_number": "None", "St_name": "None", "City": "Bayonne", "State": "NJ", "Zip": "None", "Excav_company": "PSE&G", "Neighborhood": "AVE E" }, "geometry": { "type": "Point", "coordinates": [ -74.109323527878701, 40.664891605098703 ] } },
{ "type": "Feature", "properties": { "Ticket": 111241849, "Date": "2011-05-04", "Time": "15:12:52-04", "Header": "EMERGENCY", "County": "BURLINGTON", "Rating": 40, "Longitude": -74.561594416617908, "Latitude": 39.906182173643401, "St_number": "None", "St_name": "Pine", "City": "Browns Mills", "State": "NJ", "Zip": "08015", "Excav_company": "PSE&G", "Neighborhood": "CHURCH" }, "geometry": { "type": "Point", "coordinates": [ -74.561594416617908, 39.906182173643401 ] } },
{ "type": "Feature", "properties": { "Ticket": 142980225, "Date": "2014-10-25", "Time": "14:23:20-04", "Header": "EMERGENCY", "County": "MONMOUTH", "Rating": 23, "Longitude": -75.188549489940499, "Latitude": 40.705458604560597, "St_number": "290", "St_name": "Prospect", "City": "Delaware Park", "State": "NJ", "Zip": "08865", "Excav_company": "APOLLO SEWER & PLUMBING", "Neighborhood": "RIVERDALE" }, "geometry": { "type": "Point", "coordinates": [ -75.188549489940499, 40.705458604560597 ] } },
{ "type": "Feature", "properties": { "Ticket": 111940043, "Date": "2011-07-13", "Time": "06:42:30-04", "Header": "EMERGENCY", "County": "MERCER", "Rating": 11, "Longitude": -74.766096034718998, "Latitude": 40.225343239388202, "St_number": "42", "St_name": "Tucker", "City": "Trenton", "State": "NJ", "Zip": "08618", "Excav_company": "HENKELS & MCCOY", "Neighborhood": "WILLOW" }, "geometry": { "type": "Point", "coordinates": [ -74.766096034718998, 40.225343239388202 ] } },
{ "type": "Feature", "properties": { "Ticket": 101471624, "Date": "2010-05-27", "Time": "15:04:33-04", "Header": "EMERGENCY", "County": "ESSEX", "Rating": 23, "Longitude": -74.386466973471499, "Latitude": 39.568437237541602, "St_number": "63", "St_name": "Portland", "City": "Mystic Island", "State": "NJ", "Zip": "08087", "Excav_company": "GRANADA CONSTRUCTION CORPORATI", "Neighborhood": "VALLEY" }, "geometry": { "type": "Point", "coordinates": [ -74.386466973471499, 39.568437237541602 ] } },
{ "type": "Feature", "properties": { "Ticket": 140370850, "Date": "2014-02-06", "Time": "13:21:25-05", "Header": "EMERGENCY", "County": "BURLINGTON", "Rating": 24, "Longitude": -74.171201001442299, "Latitude": 39.656454310359599, "St_number": "165", "St_name": "2nd", "City": "Surf City", "State": "NJ", "Zip": "08008", "Excav_company": "PSE&G", "Neighborhood": "MARY" }, "geometry": { "type": "Point", "coordinates": [ -74.171201001442299, 39.656454310359599 ] } },
{ "type": "Feature", "properties": { "Ticket": 130870276, "Date": "2013-03-28", "Time": "08:38:30-04", "Header": "EMERGENCY", "County": "MIDDLESEX", "Rating": 11, "Longitude": -74.374696900240295, "Latitude": 40.541310398515897, "St_number": "39", "St_name": "John", "City": "Metuchen", "State": "NJ", "Zip": "08840", "Excav_company": "MIDDLESEX WATER", "Neighborhood": "DURHAM" }, "geometry": { "type": "Point", "coordinates": [ -74.374696900240295, 40.541310398515897 ] } },
{ "type": "Feature", "properties": { "Ticket": 130991091, "Date": "2013-04-09", "Time": "10:51:19-04", "Header": "EMERGENCY", "County": "CAMDEN", "Rating": 28, "Longitude": -75.041507954365798, "Latitude": 39.938464243729101, "St_number": "617", "St_name": "Kenilworth", "City": "Golden Triangle", "State": "NJ", "Zip": "08002", "Excav_company": "PSE&G", "Neighborhood": "LONGWOOD" }, "geometry": { "type": "Point", "coordinates": [ -75.041507954365798, 39.938464243729101 ] } },
{ "type": "Feature", "properties": { "Ticket": 122500258, "Date": "2012-09-06", "Time": "08:15:25-04", "Header": "EMERGENCY", "County": "ATLANTIC", "Rating": 52, "Longitude": -75.149170641077504, "Latitude": 39.832264525057099, "St_number": "220", "St_name": "Barber", "City": "Woodbury", "State": "NJ", "Zip": "08096", "Excav_company": "SUPERIOR PLUMBING & HEATING", "Neighborhood": "HEATHERCROFT" }, "geometry": { "type": "Point", "coordinates": [ -75.149170641077504, 39.832264525057099 ] } },
{ "type": "Feature", "properties": { "Ticket": 140781417, "Date": "2014-03-19", "Time": "13:11:36-04", "Header": "EMERGENCY", "County": "BERGEN", "Rating": 16, "Longitude": -73.947787818823699, "Latitude": 41.002931720282099, "St_number": "120", "St_name": "Sanial", "City": "Northvale", "State": "NJ", "Zip": "07647", "Excav_company": "J FLETCHER CREAMER & SON", "Neighborhood": "FRANKLIN" }, "geometry": { "type": "Point", "coordinates": [ -73.947787818823699, 41.002931720282099 ] } },
{ "type": "Feature", "properties": { "Ticket": 123050385, "Date": "2012-10-31", "Time": "10:52:37-04", "Header": "EMERGENCY", "County": "ATLANTIC", "Rating": 11, "Longitude": -74.804395761618593, "Latitude": 39.634469928792292, "St_number": "24", "St_name": "Front", "City": "Hammonton", "State": "NJ", "Zip": "08037", "Excav_company": "SOUTH JERSEY GAS", "Neighborhood": "PASSMORE" }, "geometry": { "type": "Point", "coordinates": [ -74.804395761618593, 39.634469928792292 ] } },
{ "type": "Feature", "properties": { "Ticket": 130800070, "Date": "2013-03-21", "Time": "07:05:44-04", "Header": "EMERGENCY", "County": "CAMDEN", "Rating": 34, "Longitude": -75.466488346576497, "Latitude": 39.721449068672598, "St_number": "None", "St_name": "Park", "City": "Penns Grove", "State": "NJ", "Zip": "08069", "Excav_company": "RAPID ROOTER", "Neighborhood": "NORWOOD" }, "geometry": { "type": "Point", "coordinates": [ -75.466488346576497, 39.721449068672598 ] } },
{ "type": "Feature", "properties": { "Ticket": 142770093, "Date": "2014-10-04", "Time": "11:28:04-04", "Header": "EMERGENCY", "County": "ATLANTIC", "Rating": 23, "Longitude": -74.466999035704305, "Latitude": 39.343552770470296, "St_number": "108", "St_name": "Marion", "City": "Ventnor City", "State": "NJ", "Zip": "08406", "Excav_company": "VENTNOR CITY PUBLIC WORKS", "Neighborhood": "ATLANTIC" }, "geometry": { "type": "Point", "coordinates": [ -74.466999035704305, 39.343552770470296 ] } },
{ "type": "Feature", "properties": { "Ticket": 121450870, "Date": "2012-05-24", "Time": "11:01:17-04", "Header": "EMERGENCY", "County": "MORRIS", "Rating": 27, "Longitude": -74.379373967514709, "Latitude": 39.949721717197903, "St_number": "3", "St_name": "Falmouth", "City": "Cedar Glen Lakes", "State": "NJ", "Zip": "08759", "Excav_company": "NEW JERSEY AMERICAN WATER", "Neighborhood": "SHUNPIKE" }, "geometry": { "type": "Point", "coordinates": [ -74.379373967514709, 39.949721717197903 ] } },
{ "type": "Feature", "properties": { "Ticket": 121380346, "Date": "2012-05-17", "Time": "08:49:43-04", "Header": "EMERGENCY", "County": "ESSEX", "Rating": 11, "Longitude": -74.15537866997991, "Latitude": 40.730087232481999, "St_number": "25", "St_name": "Clover", "City": "Newark", "State": "NJ", "Zip": "07105", "Excav_company": "MILLER PIPELINE CORP.", "Neighborhood": "POLK" }, "geometry": { "type": "Point", "coordinates": [ -74.15537866997991, 40.730087232481999 ] } },
{ "type": "Feature", "properties": { "Ticket": 100962450, "Date": "2010-04-06", "Time": "16:07:44-04", "Header": "EMERGENCY", "County": "UNION", "Rating": 54, "Longitude": -74.627310650471415, "Latitude": 40.230435883205601, "St_number": "29", "St_name": "Tasley", "City": "Groveville", "State": "NJ", "Zip": "08691", "Excav_company": "LBC CONSTRUCTION", "Neighborhood": "GOODMANS" }, "geometry": { "type": "Point", "coordinates": [ -74.627310650471415, 40.230435883205601 ] } },
{ "type": "Feature", "properties": { "Ticket": 112340901, "Date": "2011-08-22", "Time": "11:24:05-04", "Header": "EMERGENCY", "County": "MERCER", "Rating": 31, "Longitude": -74.756028567605412, "Latitude": 40.197968078778899, "St_number": "100", "St_name": "Lalor", "City": "Trenton", "State": "NJ", "Zip": "08611", "Excav_company": "GRACE DISTRIBUTION", "Neighborhood": "LAMBERTON" }, "geometry": { "type": "Point", "coordinates": [ -74.756028567605412, 40.197968078778899 ] } },
{ "type": "Feature", "properties": { "Ticket": 150280091, "Date": "2015-01-28", "Time": "07:41:51-05", "Header": "EMERGENCY", "County": "CUMBERLAND", "Rating": 13, "Longitude": -75.030132226937511, "Latitude": 39.396389024910796, "St_number": "106", "St_name": "7th", "City": "Millville", "State": "NJ", "Zip": "08332", "Excav_company": "SOUTH JERSEY GAS", "Neighborhood": "SASSAFRAS" }, "geometry": { "type": "Point", "coordinates": [ -75.030132226937511, 39.396389024910796 ] } },
{ "type": "Feature", "properties": { "Ticket": 110751670, "Date": "2011-03-16", "Time": "15:25:50-04", "Header": "EMERGENCY", "County": "HUNTERDON", "Rating": 72, "Longitude": -74.050166740291402, "Latitude": 40.761217731770799, "St_number": "None", "St_name": "1", "City": "West New York", "State": "NJ", "Zip": "07047", "Excav_company": "ELIZABETHTOWN GAS COMPANY", "Neighborhood": "ROCKTOWN" }, "geometry": { "type": "Point", "coordinates": [ -74.050166740291402, 40.761217731770799 ] } },
{ "type": "Feature", "properties": { "Ticket": 100751254, "Date": "2010-03-16", "Time": "13:04:37-04", "Header": "EMERGENCY", "County": "BERGEN", "Rating": 16, "Longitude": -73.986162574951095, "Latitude": 40.874529298465298, "St_number": "59", "St_name": "Lakeview", "City": "Leonia", "State": "NJ", "Zip": "07605", "Excav_company": "PUBLIC SERVICE ELECTRIC & GAS", "Neighborhood": "GRAND" }, "geometry": { "type": "Point", "coordinates": [ -73.986162574951095, 40.874529298465298 ] } },
{ "type": "Feature", "properties": { "Ticket": 143440981, "Date": "2014-12-10", "Time": "12:56:30-05", "Header": "EMERGENCY", "County": "OCEAN", "Rating": 21, "Longitude": -74.156426693746198, "Latitude": 39.990420345197499, "St_number": "202", "St_name": "Shenandoah", "City": "Toms River", "State": "NJ", "Zip": "08753", "Excav_company": "MESSER PLUMBING & HEATING", "Neighborhood": null }, "geometry": { "type": "Point", "coordinates": [ -74.156426693746198, 39.990420345197499 ] } },
{ "type": "Feature", "properties": { "Ticket": 140070193, "Date": "2014-01-07", "Time": "08:32:30-05", "Header": "EMERGENCY", "County": "UNION", "Rating": 13, "Longitude": -74.337201490167004, "Latitude": 40.661742911814201, "St_number": "812", "St_name": "Broad", "City": "Westfield", "State": "NJ", "Zip": "07090", "Excav_company": "NEW JERSEY AMERICAN WATER", "Neighborhood": "WELLS" }, "geometry": { "type": "Point", "coordinates": [ -74.337201490167004, 40.661742911814201 ] } },
{ "type": "Feature", "properties": { "Ticket": 103071547, "Date": "2010-11-03", "Time": "14:48:16-04", "Header": "EMERGENCY", "County": "MERCER", "Rating": 69, "Longitude": -74.105470392571902, "Latitude": 40.995159351990999, "St_number": "None", "St_name": "507", "City": "Ridgewood", "State": "NJ", "Zip": "07450", "Excav_company": "PSE&G", "Neighborhood": "EWING" }, "geometry": { "type": "Point", "coordinates": [ -74.105470392571902, 40.995159351990999 ] } },
{ "type": "Feature", "properties": { "Ticket": 100921010, "Date": "2010-04-02", "Time": "14:33:47-04", "Header": "EMERGENCY", "County": "MORRIS", "Rating": 99, "Longitude": -74.625020707967494, "Latitude": 39.954297038182204, "St_number": "4", "St_name": "Woods", "City": "Browns Mills", "State": "NJ", "Zip": "08015", "Excav_company": "CASTLTON ENVIRONMENTAL CONTRAC", "Neighborhood": "OLD BLOOMFIELD" }, "geometry": { "type": "Point", "coordinates": [ -74.625020707967494, 39.954297038182204 ] } },
{ "type": "Feature", "properties": { "Ticket": 111951003, "Date": "2011-07-14", "Time": "12:12:01-04", "Header": "EMERGENCY", "County": "PASSAIC", "Rating": 22, "Longitude": -74.193700519019998, "Latitude": 40.893843593185899, "St_number": "118", "St_name": "Highview", "City": "Woodland Park", "State": "NJ", "Zip": "07424", "Excav_company": "PSE&G", "Neighborhood": "GREENE" }, "geometry": { "type": "Point", "coordinates": [ -74.193700519019998, 40.893843593185899 ] } },
{ "type": "Feature", "properties": { "Ticket": 110500058, "Date": "2011-02-19", "Time": "09:23:03-05", "Header": "EMERGENCY", "County": "UNION", "Rating": 16, "Longitude": -74.432592891725591, "Latitude": 40.606098228404498, "St_number": "420", "St_name": "Grant", "City": "Plainfield", "State": "NJ", "Zip": "07060", "Excav_company": "NEW JERSEY AMERICAN WATER COMP", "Neighborhood": "5TH" }, "geometry": { "type": "Point", "coordinates": [ -74.432592891725591, 40.606098228404498 ] } },
{ "type": "Feature", "properties": { "Ticket": 101250184, "Date": "2010-05-05", "Time": "07:56:10-04", "Header": "EMERGENCY", "County": "MONMOUTH", "Rating": 17, "Longitude": -74.255650461431898, "Latitude": 40.265695994852003, "St_number": "204", "St_name": "Harding", "City": "East Freehold", "State": "NJ", "Zip": "07728", "Excav_company": "PILLA ELECTRIC INC.", "Neighborhood": "COLTS NECK" }, "geometry": { "type": "Point", "coordinates": [ -74.255650461431898, 40.265695994852003 ] } },
{ "type": "Feature", "properties": { "Ticket": 120160341, "Date": "2012-01-16", "Time": "09:51:00-05", "Header": "EMERGENCY", "County": "BERGEN", "Rating": 16, "Longitude": -74.032556893232695, "Latitude": 40.954575023861601, "St_number": "652", "St_name": "Oradell", "City": "Oradell", "State": "NJ", "Zip": "07649", "Excav_company": "JOHN GARCIA CONSTRUCTION", "Neighborhood": "KINDERKAMACK" }, "geometry": { "type": "Point", "coordinates": [ -74.032556893232695, 40.954575023861601 ] } },
{ "type": "Feature", "properties": { "Ticket": 122910959, "Date": "2012-10-17", "Time": "11:15:04-04", "Header": "EMERGENCY", "County": "MIDDLESEX", "Rating": 24, "Longitude": -74.49767150834559, "Latitude": 40.516582919929704, "St_number": "61", "St_name": "Deerfield", "City": "Somerset", "State": "NJ", "Zip": "08873", "Excav_company": "FRANK ALVAREZ & SONS INC", "Neighborhood": "SPENCER" }, "geometry": { "type": "Point", "coordinates": [ -74.49767150834559, 40.516582919929704 ] } },
{ "type": "Feature", "properties": { "Ticket": 111810359, "Date": "2011-06-30", "Time": "09:06:22-04", "Header": "EMERGENCY", "County": "HUDSON", "Rating": 16, "Longitude": -74.073807435116294, "Latitude": 40.7343891503644, "St_number": "30", "St_name": "Wales", "City": "Jersey City", "State": "NJ", "Zip": "07306", "Excav_company": "ABSOLUTE CONSTRUCTION", "Neighborhood": "LOGAN" }, "geometry": { "type": "Point", "coordinates": [ -74.073807435116294, 40.7343891503644 ] } },
{ "type": "Feature", "properties": { "Ticket": 140820129, "Date": "2014-03-23", "Time": "19:18:55-04", "Header": "EMERGENCY", "County": "OCEAN", "Rating": 70, "Longitude": -74.839595119467504, "Latitude": 38.965812799392204, "St_number": "None", "St_name": "Louisville", "City": "Wildwood Crest", "State": "NJ", "Zip": "08260", "Excav_company": "JCP&L", "Neighborhood": "RODRIGUEZ" }, "geometry": { "type": "Point", "coordinates": [ -74.839595119467504, 38.965812799392204 ] } },
{ "type": "Feature", "properties": { "Ticket": 130850144, "Date": "2013-03-26", "Time": "08:02:18-04", "Header": "EMERGENCY", "County": "BERGEN", "Rating": 11, "Longitude": -74.040385246953093, "Latitude": 40.869297636306797, "St_number": "300", "St_name": "Hudson", "City": "Hackensack", "State": "NJ", "Zip": "07601", "Excav_company": "HENKELS & MCCOY", "Neighborhood": "WYSOCKI" }, "geometry": { "type": "Point", "coordinates": [ -74.040385246953093, 40.869297636306797 ] } },
{ "type": "Feature", "properties": { "Ticket": 112240130, "Date": "2011-08-12", "Time": "08:09:17-04", "Header": "EMERGENCY", "County": "OCEAN", "Rating": 21, "Longitude": -74.192651445658413, "Latitude": 39.828123920359104, "St_number": "18", "St_name": "Beacon", "City": "Forked River", "State": "NJ", "Zip": "08731", "Excav_company": "A GENERAL SEWER SERVICE", "Neighborhood": "LIGHTHOUSE" }, "geometry": { "type": "Point", "coordinates": [ -74.192651445658413, 39.828123920359104 ] } },
{ "type": "Feature", "properties": { "Ticket": 132790055, "Date": "2013-10-06", "Time": "14:18:45-04", "Header": "EMERGENCY", "County": "MIDDLESEX", "Rating": 13, "Longitude": -74.283469068998002, "Latitude": 40.423022414968706, "St_number": "25", "St_name": "Thistle", "City": "Brownville", "State": "NJ", "Zip": "07747", "Excav_company": "OLD BRIDGE M.U.A.", "Neighborhood": "BRAMBLE" },